Status,Type,Application Number,License Number,Entity Name,Street,City,State,Zip Code,Latitude,Longitude,Georeference
Pending,CAURD Retail,,,CAURD Pending Location,1802 East Ridge Road,Irondequoit,NY,14622,43.20130706,-77.5693272,POINT (-77.5693272 43.20130706)
Pending,CAURD Retail,OCMCAURDP-2024-000027,,"Good Vibes NYC, Inc.",5591 Broadway,Bronx,NY,10463,40.87882554,-73.90494359,POINT (-73.90494359 40.87882554)
Active,RO Medical,,MM0605D,"NYCANNA, LLC",247 Dunning Rd.,Wallkill,NY,10940,41.45392992,-74.38317183,POINT (-74.38317183 41.45392992)
Pending,Adult-Use Retail,OCMRETL-2023-001213,,Mirae Corp,40-28 Murray Street,Flushing,NY,11354,40.76381429,-73.81278839,POINT (-73.81278839 40.76381429)
Pending,Adult-Use Retail,OCMRETL-2023-000074,,The Alcove NY LLC,579 Myrtle Ave,Brooklyn,NY,11205,40.69408672,-73.96095103,POINT (-73.96095103 40.69408672)
Active,Adult-Use Retail,OCMRETL-2023-002012,OCM-RETL-24-000121,Altitude NY LLC,750 Saint Nicholas Avenue,New York,NY,10031,40.82556543,-73.9435573,POINT (-73.9435573 40.82556543)
Active,Adult-Use Retail,OCMRETL-2023-001264,OCM-RETL-24-000152,RSSQ Holding LLC,1200 Mamaroneck Ave,White Plains,NY,10605,40.99263475,-73.74661336,POINT (-73.74661336 40.99263475)
Pending,Adult-Use Retail,OCMRETL-2023-001837,,Meadow Flower LLC,208 Front St,Owego,NY,13827,42.10266791,-76.26006883,POINT (-76.26006883 42.10266791)
Pending,Adult-Use Retail,OCMRETL-2023-002034,,Fire in Da Bowl LLC,13615 Roosevelt Ave,Flushing,NY,11354,40.7597519,-73.82965127,POINT (-73.82965127 40.7597519)
Active,CAURD Retail,OCMCAURDP-2024-000071,OCM-CAURD-24-000188,Bourne Construction & Program Management LLC,2225 Church Ave,Brooklyn,NY,11226,40.65046698,-73.95830698,POINT (-73.95830698 40.65046698)
Pending,Adult-Use Microbusiness,OCMMICR-2023-000473,,Pleasant View Harvest llc,137 Main St,Cold Spring,NY,10516,41.41866182,-73.95684054,POINT (-73.95684054 41.41866182)
Pending,Adult-Use Retail,OCMRETL-2023-000972,,Bay Bridge East LLC,700 Main St,New Rochelle,NY,10801,40.90430844,-73.78808134,POINT (-73.78808134 40.90430844)
Pending,Adult-Use Retail,OCMRETL-2023-002086,,HiCaliber Consulting LLC,1307 Jefferson Ave,Buffalo,NY,14208,42.91078362,-78.85390462,POINT (-78.85390462 42.91078362)
Pending,CAURD Retail,OCMCAURDP-2024-000031,,Excelsior Dispensary LLC,162 Main St,Nyack,NY,10960,41.09175708,-73.92255396,POINT (-73.92255396 41.09175708)
Pending,Adult-Use Retail,OCMRETL-2023-001823,,Smiley 370 LLC,370 Ronkonkoma Ave,Lk Ronkonkoma,NY,11779,40.81185905,-73.11183144,POINT (-73.11183144 40.81185905)
Active,CAURD Retail,OCMCAURDP-2023-000043,OCM-CAURD-23-000036,The Herbal Care THC LLC,1412 Lexington Ave,New York,NY,10128,40.78373704,-73.95257291,POINT (-73.95257291 40.78373704)
Pending,Adult-Use Retail,OCMRETL-2023-001957,,Erik C Pye,377 Metropolitan Ave,Brooklyn,NY,11211,40.7141421,-73.95570053,POINT (-73.95570053 40.7141421)
Active,CAURD Retail,OCMCAURDP-2023-000091,OCM-CAURD-24-000171,McPhee's Smoke Shop & More LLC,345 Main Street,Hudson Falls,NY,12839,43.31392198,-73.577342,POINT (-73.577342 43.31392198)
Pending,CAURD Retail,OCMCAURDP-2024-000044,,Common Courtesy Dispensary LLC,13809 Jamaica Ave,Jamaica,NY,11435,40.70255409,-73.81504156,POINT (-73.81504156 40.70255409)
Pending,Adult-Use Retail,OCMRETL-2023-002181,,"The Bethel Performing Arts Center, LLC",200 Hurd Road,Bethel,NY,12720,41.7030165,-74.8820013,POINT (-74.8820013 41.7030165)
Pending,Adult-Use Retail,OCMRETL-2023-001724,,J&J Merch Inc.,516 Timpson Pl,Bronx,NY,10455,40.81087617,-73.90431644,POINT (-73.90431644 40.81087617)
Active,Adult-Use Retail,OCMRETL-2023-000437,OCM-RETL-24-000146,"Vaporize, Inc.",12420 Liberty Ave,South Richmond Hill,NY,11419,40.6878165,-73.81991974,POINT (-73.81991974 40.6878165)
Active,CAURD Retail,OCMCAURDP-2024-000016,OCM-CAURD-24-000205,Hassan Holder,701 8th Ave,New York,NY,10036,40.75861239,-73.98887159,POINT (-73.98887159 40.75861239)
Active,Adult-Use Retail,OCMRETL-2023-000276,OCM-RETL-24-000174,"Classy Canna, LLC",8 N Main St,Homer,NY,13077,42.63766918,-76.17851142,POINT (-76.17851142 42.63766918)
Active,CAURD Retail,OCMCAURDP-2023-000127,OCM-CAURD-24-000195,"Unbothered Bud, LLC",1546 US-9,Wappingers Falls,NY,12590,41.59450039,-73.90977801,POINT (-73.90977801 41.59450039)
Active,Adult-Use Retail,OCMRETL-2023-001433,OCM-RETL-24-000123,10415 Jamaica LLC,10415 Jamaica Ave,Jamaica,NY,11418,40.69525537,-73.84275854,POINT (-73.84275854 40.69525537)
Active,Adult-Use Microbusiness,OCMMICR-2023-000525,OCM-MICR-24-000061,QUIA AMO LLC,99 Vandam Street #5E,New York,NY,10013,40.72669008,-74.0077496,POINT (-74.0077496 40.72669008)
Active,Adult-Use Retail,OCMRETL-2023-001645,OCM-RETL-24-000043,Kingston NY Cannabis LLC,1221 Ulster Ave,Kingston,NY,12401,41.96646095,-73.98927323,POINT (-73.98927323 41.96646095)
Active,CAURD Retail,OCMCAURDP-2023-000069,OCM-CAURD-24-000132,NC Accident Reports LLC,481 Broadway,New York,NY,10013,40.72155868,-74.00013904,POINT (-74.00013904 40.72155868)
Active,Adult-Use Retail,OCMRETL-2023-000397,OCM-RETL-24-000097,"Atmospheric Hues, LLC",136 Lake St Ste 2,Newburgh,NY,12550,41.49458332,-74.03097071,POINT (-74.03097071 41.49458332)
Pending,Adult-Use Microbusiness,OCMMICR-2024-000006,,Hiddenview Family Farm LLC,233 Mansion St,Coxsackie,NY,12051,42.36086741,-73.81807926,POINT (-73.81807926 42.36086741)
Active,CAURD Retail,OCMCAURDP-2023-000016,OCM-CAURD-23-000014,Exscape Inc,"1308 Vestal Pky E, 1st Floor, Set D",Vestal,NY,13850,42.09161693,-76.03092973,POINT (-76.03092973 42.09161693)
Active,CAURD Retail,OCMCAURDP-2023-000005,OCM-CAURD-23-000009,Gotham CAURD LLC,3 E 3rd St,New York,NY,10003,40.72637204,-73.99160092,POINT (-73.99160092 40.72637204)
Pending,Adult-Use Retail,OCMRETL-2023-001611,,Wappingers Cannabis LLC,1444 Route 9D,New Hamburg,NY,12590,41.52554178,-73.96760414,POINT (-73.96760414 41.52554178)
Pending,Adult-Use Microbusiness,OCMMICR-C-2024-000157,,Buzzsaw Cannabis Company LLC,5044 NY-17M,New Hampton,NY,10958,41.41008121,-74.41621242,POINT (-74.41621242 41.41008121)
Pending,Adult-Use Retail,OCMRETL-2023-001785,,JDR CANN LLC,67 Milbar Blvd,Farmingdale,NY,11735,40.7501649,-73.41937887,POINT (-73.41937887 40.7501649)
Active,CAURD Retail,OCMCAURDP-2023-000134,OCM-CAURD-24-000143,"Legendary Bliss, LLC",9 Connor Ln,Deer Park,NY,11729,40.74514239,-73.30817935,POINT (-73.30817935 40.74514239)
Active,Adult-Use Retail,OCMRETL-2023-001934,OCM-RETL-24-000095,Potluck Project LLC,1114 Main Ave,Astoria,NY,11102,40.77199784,-73.93197226,POINT (-73.93197226 40.77199784)
Active,Adult-Use Retail,OCMRETL-2023-001569,OCM-RETL-24-000020,Yonkers Dream LLC,2247 Central Park Ave,Yonkers,NY,10710,40.97443045,-73.8338031,POINT (-73.8338031 40.97443045)
Pending,CAURD Retail,OCMCAURDP-2023-000222,,BIG APPLE EXOTICS LLC,854 7th Ave,New York,NY,10019,40.76391484,-73.98128788,POINT (-73.98128788 40.76391484)
Active,CAURD Retail,OCMCAURDP-2023-000024,OCM-CAURD-24-000089,"No Name Graphics, LLC",137 4th St,Troy,NY,12180,42.72835773,-73.68974091,POINT (-73.68974091 42.72835773)
Pending,Adult-Use Retail,OCMRETL-2023-001159,,"Owl Be Smokin, Inc.",213 W Union St,Newark,NY,14513,43.04652672,-77.09829888,POINT (-77.09829888 43.04652672)
Pending,CAURD Retail,OCMCAURDP-2024-000086,,"Dank Heaven, LLC",1418 Avenue Z,Brooklyn,NY,11235,40.58782747,-73.95503769,POINT (-73.95503769 40.58782747)
Active,Adult-Use Retail,OCMRETL-2023-001869,OCM-RETL-24-000023,WNRA LLC,13115 Merrick Blvd,Jamaica,NY,11434,40.67965855,-73.76127018,POINT (-73.76127018 40.67965855)
Active,Adult-Use Retail,OCMRETL-2023-002055,OCM-RETL-24-000180,DTPFF Enterprises LLC,69 Graham Ave,Brooklyn,NY,11206,40.70397312,-73.94272507,POINT (-73.94272507 40.70397312)
Active,RO Medical,,MM0102D,"PharmaCann of New York, LLC.",25 Northpointe Pkwy,Amherst,NY,14228,43.03529774,-78.80563663,POINT (-78.80563663 43.03529774)
Pending,Adult-Use Retail,OCMRETL-2023-001290,,14707 45th LLC,14707 45th Ave,Flushing,NY,11355,40.75553872,-73.81516354,POINT (-73.81516354 40.75553872)
Pending,Adult-Use Retail,OCMRETL-2023-002124,,Stay Blessed LLC,1284 Central Ave,Albany,NY,12205,42.69947962,-73.8122651,POINT (-73.8122651 42.69947962)
Pending,Adult-Use Retail,OCMRETL-2023-000510,,GRNY Ventures LLC,683 New Loudon Rd,Latham,NY,12110,42.73361643,-73.76224148,POINT (-73.76224148 42.73361643)
Active,CAURD Retail,OCMCAURDP-2023-000102,OCM-CAURD-24-000048,BK Exotic Outlet LLC,1056 Flatbush Avenue,Brooklyn,NY,11226,40.64524522,-73.95810956,POINT (-73.95810956 40.64524522)
Pending,Adult-Use Retail,OCMRETL-2023-000721,,Comfort Care Services inc.,99-00 Metropolitan Avenue,Forest Hills,NY,11375,40.7108479,-73.85366565,POINT (-73.85366565 40.7108479)
Pending,Adult-Use Retail,OCMRETL-2023-002187,,"Forage Dispensaries, LLC",355 Main St,Catskill,NY,12414,42.21825866,-73.86522284,POINT (-73.86522284 42.21825866)
Pending,CAURD Retail,OCMCAURDP-2024-000094,,Strong Island Chronic LLC,19 Technology Dr,East Setauket,NY,11733,40.89848476,-73.08648928,POINT (-73.08648928 40.89848476)
Pending,Adult-Use Microbusiness,OCMMICR-2023-000614,,Green Witch Cannabis LLC,1144 Cold Spring Rd,Forestburgh,NY,12777,41.58551268,-74.67132995,POINT (-74.67132995 41.58551268)
Active,Adult-Use Retail,OCMRETL-2023-000198,OCM-RETL-24-000150,"Moore & More, LLC",2166 State Route 17B # 224,Bethel,NY,12720,41.68782612,-74.8871068,POINT (-74.8871068 41.68782612)
Pending,Adult-Use Microbusiness,OCMMICR-2023-000122,,Innocence Cannabis LLC,6730 Lake Rd,Appleton,NY,14008,43.34517994,-78.66057203,POINT (-78.66057203 43.34517994)
Active,CAURD Retail,OCMCAURDP-2023-000126,OCM-CAURD-24-000055,Mach Enterprises of NY LLC,155 Monroe Ave,Rochester,NY,14607,43.1507652,-77.60116661,POINT (-77.60116661 43.1507652)
Active,RO Medical,,MM1006D,"Curaleaf NY, LLC",532 Chili Ave,Rochester,NY,14611,43.14541454,-77.65088631,POINT (-77.65088631 43.14541454)
Active,CAURD Retail,OCMCAURDP-2023-000076,OCM-CAURD-24-000066,"Nickel City Green, LLC",2981 Delaware Avenue,Kenmore,NY,14217,42.96536943,-78.87027341,POINT (-78.87027341 42.96536943)
Pending,CAURD Retail,OCMCAURDP-2024-000001,,Capri Holdings 2 LLC,887 Yonkers Ave,Yonkers,NY,10704,40.91932193,-73.86058728,POINT (-73.86058728 40.91932193)
Pending,CAURD Retail,OCMCAURDP-2023-000210,,Lotus Dispensary LLC,185-24 Horace Harding Expressway,Fresh Meadows,NY,11365,40.73988816,-73.78898687,POINT (-73.78898687 40.73988816)
Pending,Adult-Use Retail,OCMRETL-2023-000931,,Southampton Deep Blue Sea LLC,125 Tuckahoe Ln,Southampton,NY,11968,40.89330418,-72.4241809,POINT (-72.4241809 40.89330418)
Active,Adult-Use Retail,OCMRETL-2023-001377,OCM-RETL-24-000021,2147 44th LLC,2147 44th Dr,Long Island City,NY,11101,40.7480493,-73.94676353,POINT (-73.94676353 40.7480493)
Pending,Adult-Use Microbusiness,OCMMICR-C-2024-000009,,FUFA LLC,8723 Noble St,Evans Mills,NY,13637,44.08803528,-75.80741102,POINT (-75.80741102 44.08803528)
Pending,Adult-Use Retail,OCMRETL-2023-001428,,Friends Vintage LLC,56 Bogart St,Brooklyn,NY,11206,40.70573623,-73.93334192,POINT (-73.93334192 40.70573623)
Pending,Adult-Use Retail,OCMRETL-2023-001768,,AB&MP Inc.,3547 Broadway,New York,NY,10031,40.82666524,-73.95036756,POINT (-73.95036756 40.82666524)
Active,CAURD Retail,OCMCAURDP-2024-000010,OCM-CAURD-24-000134,Joseph B Simons,4658 Onondaga Blvd,Syracuse,NY,13219,43.03208823,-76.1940868,POINT (-76.1940868 43.03208823)
Active,Adult-Use Retail,OCMRETL-2023-000909,OCM-RETL-24-000010,Khaar Wellness LLC,3341 Sheridan Dr,Amherst,NY,14226,42.97992808,-78.80987151,POINT (-78.80987151 42.97992808)
Active,Adult-Use Retail,OCMRETL-2023-000993,OCM-RETL-24-000069,Briar Hill Holdings LLC,1385 Abbott Rd,Lackawanna,NY,14218,42.82705864,-78.80410433,POINT (-78.80410433 42.82705864)
Pending,RO Medical,,,Hudson Health Extracts,98-48 Queens Blvd,Flushing,NY,11374,40.72772157,-73.85655443,POINT (-73.85655443 40.72772157)
Active,Adult-Use Retail,OCMRETL-2023-001575,OCM-RETL-24-000151,"Rockaway Moonshot, LLC",9519 Rockaway Beach Blvd,Rockaway Beach,NY,11693,40.58555088,-73.81737917,POINT (-73.81737917 40.58555088)
Pending,CAURD Retail,OCMCAURDP-2023-000113,,Of The Earth Canna LLC,1390 Saint Nicholas Ave,New York,NY,10033,40.84831168,-73.93437761,POINT (-73.93437761 40.84831168)
Pending,Adult-Use Microbusiness,OCMMICR-2023-000241,,"HempLocks, LLC",4638 Main St,Hemlock,NY,14466,42.7953897,-77.6076377,POINT (-77.6076377 42.7953897)
Active,Adult-Use Retail,OCMRETL-2023-000636,OCM-RETL-24-000066,"Sage Holdco, Inc.",268 Forest Hill Dr,Kingston,NY,12401,41.95057866,-74.04239111,POINT (-74.04239111 41.95057866)
Pending,Adult-Use Retail,OCMRETL-2023-002206,,NY Flower Depot LLC,1495 Mount Hope Ave,Rochester,NY,14620,43.12054588,-77.61955312,POINT (-77.61955312 43.12054588)
Pending,RO Medical & Adult-Use,,,"PharmaCann of New York, LLC.",5841 Bridge Street,East Syracuse,NY,13057,43.05510834,-76.06696005,POINT (-76.06696005 43.05510834)
Pending,Adult-Use Retail,OCMRETL-2023-000500,,"The Highline Cannabis, LLC",45 Main St,Hastings On Hudson,NY,10706,40.99423471,-73.88081044,POINT (-73.88081044 40.99423471)
Active,Adult-Use Retail,OCMRETL-2023-001418,OCM-RETL-24-000164,Upscale Cannabis Incorporated,3042b Fenton Ave,Bronx,NY,10469,40.86965116,-73.84440732,POINT (-73.84440732 40.86965116)
Active,RO Medical,,MM0405D,"Etain, LLC.",2140 Erie Boulevard,East Syracuse,NY,13224,43.05239805,-76.1109928,POINT (-76.1109928 43.05239805)
Active,Adult-Use Retail,OCMRETL-2023-001006,OCM-RETL-24-000075,Juicy Wellness Inc.,66-33 Fresh Pond Rd,Ridgewood,NY,11385,40.70801598,-73.89765447,POINT (-73.89765447 40.70801598)
Active,Adult-Use Retail,OCMRETL-2023-001544,OCM-RETL-24-000179,Bud Brothers and Sisters LLC,1607 Columbia Tpke,Castleton On Hudson,NY,12033,42.56996892,-73.68553432,POINT (-73.68553432 42.56996892)
Pending,CAURD Retail,OCMCAURDP-2024-000004,,Top Shelf Aficionados,33 Old Dock Road,Bellport,NY,11713,40.82026519,-72.94387685,POINT (-72.94387685 40.82026519)
Active,CAURD Retail,OCMCAURDP-2023-000093,OCM-CAURD-24-000061,New Metro Enterprise Inc,221-50 Horace Harding Expressway,Bayside,NY,11364,40.74947136,-73.75487575,POINT (-73.75487575 40.74947136)
Pending,Adult-Use Retail,OCMRETL-2023-001686,,Serenitas Care LLC,366 Nine Partners Rd,Clinton Corners,NY,12514,41.88716977,-73.77245837,POINT (-73.77245837 41.88716977)
Active,Adult-Use Retail,OCMRETL-2023-000485,OCM-RETL-24-000083,Caffiend LLC,892 Wyckoff Ave,Brooklyn,NY,11237,40.69705361,-73.90678172,POINT (-73.90678172 40.69705361)
Active,Adult-Use Retail,OCMRETL-2023-001542,OCM-RETL-24-000122,Gone Tiki LLC,1829 Como Park Blvd,Lancaster,NY,14086,42.89277127,-78.68393831,POINT (-78.68393831 42.89277127)
Pending,Adult-Use Retail,OCMRETL-2023-000455,,The Coughie Shop Limited Liability Company,12266 Oswego St,Wolcott,NY,14590,43.22252345,-76.80500555,POINT (-76.80500555 43.22252345)
Pending,Adult-Use Retail,OCMRETL-2023-000668,,Cannabis Dispensary LLC,7560 Niagara Falls Blvd,Niagara Falls,NY,14304,43.0926,-78.9765,POINT (-78.9765 43.0926)
Active,CAURD Retail,OCMCAURDP-2023-000108,OCM-CAURD-24-000145,Xander Legacy LLC,946 Fulton Street,Brooklyn,NY,11238,40.68263364,-73.96312265,POINT (-73.96312265 40.68263364)
Active,CAURD Retail,OCMCAURDP-2023-000119,OCM-CAURD-24-000148,82-J LLC,1673 Hertel Ave,Buffalo,NY,14214,42.94754829,-78.84605882,POINT (-78.84605882 42.94754829)
Active,CAURD Retail,OCMCAURDP-2023-000105,OCM-CAURD-24-000081,Raven Dispensaries LLC,4106 State Route 31 Ste 903,Clay,NY,13041,43.18556121,-76.22997844,POINT (-76.22997844 43.18556121)
Active,CAURD Retail,OCMCAURDP-2023-000072,OCM-CAURD-24-000162,NYCECITY LLC,2441 Flatbush Ave,Brooklyn,NY,11234,40.61071829,-73.92341478,POINT (-73.92341478 40.61071829)
Active,Adult-Use Retail,OCMRETL-2023-002123,OCM-RETL-24-000182,SLIM 710 LLC,530 Fulton St,Brooklyn,NY,11201,40.68906196,-73.98151756,POINT (-73.98151756 40.68906196)
Pending,Adult-Use Retail,OCMRETL-2023-001656,,Green Comfort Inc.,999 S Clinton Ave,Rochester,NY,14620,43.13874917,-77.59534404,POINT (-77.59534404 43.13874917)
Pending,Adult-Use Retail,OCMRETL-2023-001369,,"4081House, LLC",158-160 Remsen St,Cohoes,NY,12047,42.77236147,-73.70095677,POINT (-73.70095677 42.77236147)
Pending,Adult-Use Retail,OCMRETL-2023-001455,,"Vivid Wellness, LLC",242 Main St,Binghamton,NY,13905,42.10692452,-75.93620706,POINT (-75.93620706 42.10692452)
Active,Adult-Use Microbusiness,OCMMICR-2023-000213,OCM-MICR-24-000143,Taliaferro Farm Store LLC,7536 N Broadway,Red Hook,NY,12571,41.99631137,-73.874683,POINT (-73.874683 41.99631137)
Pending,CAURD Retail,OCMCAURDP-2023-000150,,Dennis J Fernando JR,46 Ronald Reagan Blvd,Warwick,NY,10990,41.27128609,-74.33254868,POINT (-74.33254868 41.27128609)
Active,CAURD Retail,OCMCAURDP-2023-000018,OCM-CAURD-23-000019,Dosha Farms LLC,76 Main St,Oneonta,NY,13820,42.44872072,-75.06382466,POINT (-75.06382466 42.44872072)
Active,Adult-Use Retail,OCMRETL-2023-001266,OCM-RETL-24-000055,Elevated 718 LLC,302 Kings Hwy,Brooklyn,NY,11223,40.60503455,-73.97937316,POINT (-73.97937316 40.60503455)
Pending,Adult-Use Retail,OCMRETL-2023-000135,,L A FFOCA LLC,1618 18th St,Niagara Falls,NY,14305,43.10370387,-79.03982575,POINT (-79.03982575 43.10370387)
Active,CAURD Retail,OCMCAURDP-2023-000249,OCM-CAURD-24-000131,Green Sun Inc.,3220 Westchester Avenue,Bronx,NY,10461,40.85233122,-73.8282564,POINT (-73.8282564 40.85233122)
Pending,CAURD Retail,OCMCAURDP-2023-000168,,"718 Equity Enterprise, Inc.",348 N Goodman St,Rochester,NY,14607,43.15855729,-77.58536727,POINT (-77.58536727 43.15855729)
Pending,Adult-Use Retail,OCMRETL-2023-000946,,"4081House, LLC",94-58 221st St,Queens Village,NY,11428,40.72010354,-73.73347806,POINT (-73.73347806 40.72010354)
Pending,Adult-Use Retail,OCMRETL-2023-002163,,Mohsin A. Aldalali,4358 White Plains Rd,Bronx,NY,10466,40.89742392,-73.85504863,POINT (-73.85504863 40.89742392)
Active,Adult-Use Retail,OCMRETL-2023-002207,OCM-RETL-24-000181,Cream Luxuries Astoria Inc.,78-14 Roosevelt Avenue,Queens,NY,11372,40.74720996,-73.88744946,POINT (-73.88744946 40.74720996)
Pending,CAURD Retail,OCMCAURDP-2023-000009,,Gabbys Green LLC,32-62 Steinway St,Astoria,NY,11103,40.7575668,-73.92023192,POINT (-73.92023192 40.7575668)
Active,Adult-Use Retail,OCMRETL-2023-001325,OCM-RETL-24-000178,AA 301 W. 45th St Inc.,743 9th Ave,New York,NY,10019,40.76362784,-73.98892997,POINT (-73.98892997 40.76362784)
Active,Adult-Use Retail,OCMRETL-2023-000420,OCM-RETL-24-000172,"One Love Cures, LLC",201 Northline Rd,Ballston Spa,NY,12020,43.02273682,-73.8391151,POINT (-73.8391151 43.02273682)
Pending,Adult-Use Retail,OCMRETL-2023-001565,,"3 Guys Canna, LLC",145 Ganson St,Buffalo,NY,14203,42.86446869,-78.87072972,POINT (-78.87072972 42.86446869)
Pending,Adult-Use Retail,OCMRETL-2023-000218,,Lake Eire Holdings LLC,2327 Sheridan Dr,Tonawanda,NY,14150,42.98078654,-78.84774598,POINT (-78.84774598 42.98078654)
Active,Adult-Use Microbusiness,OCMMICR-2023-000121,OCM-MICR-24-000163,Cannabis Crafters LLC,1521 Pontiac Rd,Angola,NY,14006,42.62936295,-78.98930313,POINT (-78.98930313 42.62936295)
Active,CAURD Retail,OCMCAURDP-2023-000003,OCM-CAURD-23-000004,"On Point Cannabis, Inc.",75 Court St,Binghamton,NY,13901,42.09873605,-75.91190125,POINT (-75.91190125 42.09873605)
Pending,Adult-Use Retail,OCMRETL-2023-002048,,"Red Pinene Holdings, LLC",83 Broadway,Kingston,NY,12401,41.91988624,-73.98531378,POINT (-73.98531378 41.91988624)
Active,Adult-Use Microbusiness,OCMMICR-2023-000616,OCM-MICR-24-000141,Flower City Botanical LLC,394-398 South Avenue,Rochester,NY,14620,43.14796029,-77.60594212,POINT (-77.60594212 43.14796029)
Active,Adult-Use Retail,OCMRETL-2023-002028,OCM-RETL-24-000035,"HVK Management, LLC",13004 Atlantic Ave,South Richmond Hill,NY,11419,40.69579023,-73.81874765,POINT (-73.81874765 40.69579023)
Pending,Adult-Use Retail,OCMRETL-2023-001487,,Best Dispensary Near Me Hamptons LLC,246 E Montauk Hwy,Hampton Bays,NY,11946,40.88373825,-72.50549902,POINT (-72.50549902 40.88373825)
Active,Adult-Use Retail,OCMRETL-2023-000645,OCM-RETL-24-000148,"Liberty NY Cannabis, LLC",187 Mill Street,Liberty,NY,12754,41.793265,-74.73533346,POINT (-74.73533346 41.793265)
Pending,Adult-Use Retail,OCMRETL-2023-001343,,MANHATTAN ECONOMICS LLC,376 McLean Ave,Yonkers,NY,10705,40.91044988,-73.88652551,POINT (-73.88652551 40.91044988)
Active,Adult-Use Microbusiness,OCMMICR-2023-000239,OCM-MICR-24-000125,S-Jam Handicraft Cannabis Co. Limited Liability Company,330 Central Ave,Herkimer,NY,13350,43.02039424,-74.98882619,POINT (-74.98882619 43.02039424)
Active,Adult-Use Retail,OCMRETL-2023-001665,OCM-RETL-24-000155,The Phinest Buds LLC,2415 Hyde Park Blvd,Niagara Falls,NY,14305,43.11038457,-79.03104026,POINT (-79.03104026 43.11038457)
Active,Adult-Use Retail,OCMRETL-2023-002126,OCM-RETL-24-000005,"NY Rochester Group, LLC",3553 W Henrietta Rd,Rochester,NY,14623,43.08287558,-77.63918429,POINT (-77.63918429 43.08287558)
Pending,Adult-Use Retail,OCMRETL-2023-000772,,Pike & Griff LLC,34 Scott St,Jamestown,NY,14701,42.09936108,-79.22926996,POINT (-79.22926996 42.09936108)
Pending,Adult-Use Microbusiness,OCMMICR-2023-000309,,Rosa International Realty LLC,28 Roland Pl,Schenectady,NY,12304,42.79114794,-73.91545858,POINT (-73.91545858 42.79114794)
Pending,CAURD Retail,OCMCAURDP-2023-000250,,BlazinUp LLC,302 8th Ave,New York,NY,10001,40.74665714,-73.99741212,POINT (-73.99741212 40.74665714)
Pending,Adult-Use Retail,OCMRETL-2023-000881,,Everything Exotic Deli Corp,109-30 Merrick Blvd,South Jamaica,NY,11433,40.69675218,-73.78382626,POINT (-73.78382626 40.69675218)
Active,Adult-Use Retail,OCMRETL-2023-001622,OCM-RETL-24-000165,Treehouse Cannabis LLC,1165 Bedford Ave,Brooklyn,NY,11216,40.68364812,-73.95388943,POINT (-73.95388943 40.68364812)
Pending,Adult-Use Retail,OCMRETL-2023-000977,,Farruggio Holdings II LLC,405 Connecticut St,Buffalo,NY,14213,42.90658082,-78.88615754,POINT (-78.88615754 42.90658082)
Pending,Adult-Use Retail,OCMRETL-2023-001394,,Cannalicious LLC,9415 3rd Ave,Brooklyn,NY,11209,40.61779445,-74.03329782,POINT (-74.03329782 40.61779445)
Pending,Adult-Use Retail,OCMRETL-2023-001284,,Upstate Pines Inc.,7345 S Broadway,Red Hook,NY,12571,41.98738008,-73.88119113,POINT (-73.88119113 41.98738008)
Pending,Adult-Use Retail,OCMRETL-2023-002102,,Just Buds LLC,10-14 Doyers Street,New York,NY,10013,40.71417089,-73.99769548,POINT (-73.99769548 40.71417089)
Pending,Adult-Use Retail,OCMRETL-2023-000848,,Happy Cork Bedstuy,225 Malcolm X Blvd,Brooklyn,NY,11221,40.68533954,-73.92945791,POINT (-73.92945791 40.68533954)
Pending,Adult-Use Microbusiness,OCMMICR-2023-000054,,Bud Struck LLC,1992 Route 284,Slate Hill,NY,10973,41.38543843,-74.48016635,POINT (-74.48016635 41.38543843)
Active,Adult-Use Retail,OCMRETL-2023-002153,OCM-RETL-24-000064,Sanat Cards & Gifts Inc,214-24 73rd Ave,Bayside,NY,11364,40.74033058,-73.75965377,POINT (-73.75965377 40.74033058)
Pending,Adult-Use Retail,OCMRETL-2023-001305,,The Gibbons Group LLC,2459 Frederick Douglass Blvd,New York,NY,10027,40.81443593,-73.94813667,POINT (-73.94813667 40.81443593)
Pending,Adult-Use Retail,OCMRETL-2023-002159,,Kornegay & Son LLC,982 Main St Ste 5,Fishkill,NY,12524,41.53113029,-73.90762743,POINT (-73.90762743 41.53113029)
Pending,Adult-Use Microbusiness,OCMMICR-2023-000430,,Michelle D Lego,6798 Pine Ridge Rd,Auburn,NY,13021,42.94571775,-76.51063972,POINT (-76.51063972 42.94571775)
Pending,Adult-Use Retail,OCMRETL-2023-000185,,Smokey Jungle LLC,330 Becker Dr,Schenectady,NY,12306,42.77984921,-74.02840419,POINT (-74.02840419 42.77984921)
Pending,CAURD Retail,OCMCAURDP-2024-000089,,"Cannabis Knock Knock, LLC",1260 Gerling St,Schenectady,NY,12308,42.82432395,-73.91144136,POINT (-73.91144136 42.82432395)
Pending,Adult-Use Retail,OCMRETL-2023-001810,,"3PM Ventures, LLC",2494 Niagara Falls Blvd,Tonawanda,NY,14150,43.02234944,-78.82226904,POINT (-78.82226904 43.02234944)
Pending,Adult-Use Retail,OCMRETL-2023-000852,,Green Flower Wellness 5 LLC,270-01 Hillside Avenue,Glen Oaks,NY,11004,40.73913859,-73.70052623,POINT (-73.70052623 40.73913859)
Active,Adult-Use Retail,OCMRETL-2023-000166,OCM-RETL-24-000159,Star Life Retail Group LLC,1 Hall Ave,White Plains,NY,10603,41.03835882,-73.75924999,POINT (-73.75924999 41.03835882)
Pending,Adult-Use Retail,OCMRETL-2023-001463,,A & P DISPENSARY CORP,3137 Fulton St,Brooklyn,NY,11208,40.68170705,-73.87922458,POINT (-73.87922458 40.68170705)
Active,RO Medical,,MM0204D,"Vireo Health of NY, LLC.",221-223 E. Post Road.,White Plains,NY,10601,41.02993114,-73.7636676,POINT (-73.7636676 41.02993114)
Pending,Adult-Use Retail,OCMRETL-2023-001442,,AYRA FOODS & BEVERAGES INC,502 Broadway St,Elmira,NY,14904,42.07450199,-76.81282345,POINT (-76.81282345 42.07450199)
Active,CAURD Retail,OCMCAURDP-2023-000159,OCM-CAURD-24-000064,"Luke Cloud, Inc.",925 Hunts Point Ave,Bronx,NY,10459,40.82038568,-73.89101128,POINT (-73.89101128 40.82038568)
Pending,Adult-Use Microbusiness,OCMMICR-2023-000434,,Zwarte Creek Farms LLC,387 Altamont rd,Altamont,NY,12009,42.65745124,-73.97934311,POINT (-73.97934311 42.65745124)
Pending,Adult-Use Retail,OCMRETL-2023-000553,,Decades Hamburg,4433 Southwestern Blvd,Hamburg,NY,14075,42.7638626,-78.8237963,POINT (-78.8237963 42.7638626)
Pending,Adult-Use Microbusiness,OCMMICR-2023-000104,,"Pure Cannabis, Inc.",94 Genesee St,Utica,NY,13502,43.1031087,-75.22789678,POINT (-75.22789678 43.1031087)
Active,Adult-Use Microbusiness,OCMMICR-2023-000453,OCM-MICR-24-000012,"Sunwalker Farms, Inc.",39 Eastern Blvd #101,Canandaigua,NY,14424,42.87793844,-77.26771197,POINT (-77.26771197 42.87793844)
Pending,Adult-Use Retail,OCMRETL-2023-001492,,Green Cloud Horizon USA Inc.,17116 Hillside Ave,Jamaica,NY,11432,40.71144066,-73.79080359,POINT (-73.79080359 40.71144066)
Pending,Adult-Use Retail,OCMRETL-2023-000401,,EMERALDZ INC.,272 Delaware Ave,Albany,NY,12209,42.64356715,-73.77549458,POINT (-73.77549458 42.64356715)
Pending,Adult-Use Retail,OCMRETL-2023-001904,,Bubble Buds LLC,700 Kirkpatrick St,Syracuse,NY,13208,43.06951442,-76.15303136,POINT (-76.15303136 43.06951442)
Active,RO Medical & Adult-Use,,MM0906D,"Citiva Medical, LLC",204-206Â Flatbush Ave,Brooklyn,NY,11217,40.68130244,-73.97553763,POINT (-73.97553763 40.68130244)
Active,CAURD Retail,OCMCAURDP-2023-000220,OCM-CAURD-24-000090,Devil's Lettuce LLC,650 Orchard Park,West Seneca,NY,14224,42.83067181,-78.77670004,POINT (-78.77670004 42.83067181)
Pending,Adult-Use Microbusiness,OCMMICR-2023-000483,,Greens Roadhouse LLC,63 Greens Rd,Catskill,NY,12414,42.20695292,-73.98391116,POINT (-73.98391116 42.20695292)
Pending,CAURD Retail,OCMCAURDP-2023-000111,,Actualize Dispensary Inc,104 7th Ave,New York,NY,10011,40.74007882,-73.99865547,POINT (-73.99865547 40.74007882)
Active,CAURD Retail,OCMCAURDP-2024-000045,OCM-CAURD-24-000169,Eastern Holdings 88 LLC,4034 Hylan Blvd,Staten Island,NY,10308,40.54131331,-74.14676021,POINT (-74.14676021 40.54131331)
Pending,Adult-Use Microbusiness,OCMMICR-2023-000491,,AP Cohen Licensing Inc.,621 West 46th St,New York,NY,10036,40.76361962,-73.9968722,POINT (-73.9968722 40.76361962)
Active,Adult-Use Microbusiness,OCMMICR-2023-000457,OCM-MICR-24-000152,Crooked Lake Cannabis Inc,130 W Morris St,Bath,NY,14810,42.3343113,-77.3253465,POINT (-77.3253465 42.3343113)
Pending,Adult-Use Retail,OCMRETL-2023-001962,,"4P Group, LLC",629 Nostrand Ave,Brooklyn,NY,11216,40.6757616,-73.94987229,POINT (-73.94987229 40.6757616)
Pending,CAURD Retail,,,CAURD Pending Location,1657 Hudson Ave,Irondequoit,NY,14617,43.19765815,-77.60031623,POINT (-77.60031623 43.19765815)
Pending,Adult-Use Retail,OCMRETL-2023-001602,,Herb-Z LLC,6004 Court Street Rd,Syracuse,NY,13206,43.08162862,-76.10426247,POINT (-76.10426247 43.08162862)
Active,CAURD Retail,OCMCAURDP-2023-000060,OCM-CAURD-24-000045,Tiki Leaves LLC,1511 Neptune Ave,Brooklyn,NY,11224,40.57920449,-73.98326346,POINT (-73.98326346 40.57920449)
Active,CAURD Retail,OCMCAURDP-2024-000067,OCM-CAURD-24-000202,Holly R King,308 Plaza Rd,Kingston,NY,12401,41.94058,-74.01957,POINT (-74.01957 41.94058)
Pending,Adult-Use Retail,OCMRETL-2023-001200,,Budhampton LLC,2033 Montauk Hwy,Bridgehampton,NY,11932,40.93443,-72.31576,POINT (-72.31576 40.93443)
Pending,Adult-Use Retail,OCMRETL-2023-001519,,Planet Green Dispensary and Suply LLC,1738 State St,Schenectady,NY,12304,42.78266702,-73.90663708,POINT (-73.90663708 42.78266702)
Pending,CAURD Retail,OCMCAURDP-2024-000061,,Robert L Grannis,1143 Upper Front St,Binghamton,NY,13905,42.14956404,-75.89956537,POINT (-75.89956537 42.14956404)
Pending,Adult-Use Retail,OCMRETL-2023-001623,,Canna Buddha Corp,21546 39th Ave,Bayside,NY,11361,40.76596014,-73.76781133,POINT (-73.76781133 40.76596014)
Active,Adult-Use Retail,OCMRETL-2023-001883,OCM-RETL-24-000108,"Lisa Birnbaum Personal Training, LLC",125 State St,Rochester,NY,14614,43.1576973,-77.61456147,POINT (-77.61456147 43.1576973)
Pending,Adult-Use Retail,OCMRETL-2023-001854,,"Greenbush Collective, LLC",3 Winter St,Troy,NY,12180,42.70097804,-73.65727507,POINT (-73.65727507 42.70097804)
Pending,Adult-Use Retail,OCMRETL-2023-001610,,Elevated Times-1 LLC,1173 E Union St,Newark,NY,14513,43.04680337,-77.07342321,POINT (-77.07342321 43.04680337)
Active,CAURD Retail,OCMCAURDP-2023-000020,OCM-CAURD-23-000010,Flynnstoned Corporation,219 Walton St,Syracuse,NY,13202,43.04792731,-76.15639098,POINT (-76.15639098 43.04792731)
Active,Adult-Use Microbusiness,OCMMICR-2023-000429,OCM-MICR-24-000007,Mark Turk Farms LLC,25 Railroad Ave,Roscoe,NY,12776,41.93160961,-74.91322852,POINT (-74.91322852 41.93160961)
Pending,CAURD Retail,,,CAURD Pending Location,75 Smithfield Blvd,Plattsburgh,NY,12901,44.70171221,-73.49403335,POINT (-73.49403335 44.70171221)
Active,Adult-Use Retail,OCMRETL-2023-001090,OCM-RETL-24-000079,"Misfits Dispensary R3, LLC","420 Jefferson Rd, Ste 2",Rochester,NY,14623,43.08915001,-77.64072378,POINT (-77.64072378 43.08915001)
Active,Adult-Use Retail,OCMRETL-2023-001304,OCM-RETL-24-000177,"Corner House, LLC",1708 Trumansburg Rd,Ithaca,NY,14850,42.49464752,-76.59405799,POINT (-76.59405799 42.49464752)
Active,CAURD Retail,OCMCAURDP-2023-000141,OCM-CAURD-24-000086,"High Points of the Finger Lakes, LLC",811 Canandaigua Road,Geneva,NY,14456,42.85684829,-77.01363782,POINT (-77.01363782 42.85684829)
Pending,CAURD Retail,OCMCAURDP-2024-000043,,Sherwood R Adams,92-29 Queens Blvd,Rego Park,NY,11374,40.73216756,-73.86678767,POINT (-73.86678767 40.73216756)
Active,Adult-Use Retail,OCMRETL-2023-001981,OCM-RETL-24-000100,Benjamin E Botach,35 Chestnut St,Rochester,NY,14604,43.15633963,-77.60279896,POINT (-77.60279896 43.15633963)
Active,Adult-Use Retail,OCMRETL-2023-000110,OCM-RETL-24-000007,Cloud 9 Evolution LLC,1643 Eastern Pkwy,Schenectady,NY,12309,42.80668083,-73.91208115,POINT (-73.91208115 42.80668083)
Active,Adult-Use Microbusiness,OCMMICR-2023-000565,OCM-MICR-24-000043,BKL Flowers LLC,232 5th Ave,Brooklyn,NY,11215,40.67569695,-73.98103227,POINT (-73.98103227 40.67569695)
Active,Adult-Use Retail,OCMRETL-2023-002044,OCM-RETL-24-000125,iwachiw2001 inc,48-35 41 St.,Sunnyside,NY,11104,40.73918162,-73.92416077,POINT (-73.92416077 40.73918162)
Pending,Adult-Use Retail,OCMRETL-2023-001454,,True North Cannabis LLC,1471 State Route 9,Lake George,NY,12845,43.36765277,-73.69897868,POINT (-73.69897868 43.36765277)
Active,CAURD Retail,OCMCAURDP-2024-000078,OCM-CAURD-24-000190,Excelsior Provisions LLC,2532 Route 9N,Greenfield Center,NY,12833,43.12322515,-73.84687359,POINT (-73.84687359 43.12322515)
Pending,Adult-Use Microbusiness,OCMMICR-2023-000556,,Lasting Legacy Cannabis LLC,74 S Platt St,Plattsburgh,NY,12901,44.6861204,-73.45388444,POINT (-73.45388444 44.6861204)
Pending,Adult-Use Retail,OCMRETL-2023-000257,,Route 112 Auto Detail Corp.,2906 Route 112,Medford,NY,11763,40.82979639,-72.99537065,POINT (-72.99537065 40.82979639)
Active,Adult-Use Retail,OCMRETL-2023-001900,OCM-RETL-24-000094,Ashley Capraro LLC,978 Montauk Hwy,Water Mill,NY,11976,40.91542089,-72.34716599,POINT (-72.34716599 40.91542089)
Active,CAURD Retail,OCMCAURDP-2023-000155,OCM-CAURD-24-000116,Eyal Eitan,2034 Jerome Ave,Bronx,NY,10453,40.85339353,-73.90763325,POINT (-73.90763325 40.85339353)
Active,Adult-Use Microbusiness,OCMMICR-2023-000043,OCM-MICR-24-000128,"Victory Road Farm, LLC",556 Victory Road,Red Creek,NY,13143,43.21483624,-76.70378924,POINT (-76.70378924 43.21483624)
Active,CAURD Retail,OCMCAURDP-2023-000120,OCM-CAURD-24-000129,Savo Group Inc,110 Chambers St,New York,NY,10007,40.71498156,-74.00819895,POINT (-74.00819895 40.71498156)
Pending,Adult-Use Retail,OCMRETL-2023-000966,,The Green Closet Inc.,1001 North St,Endicott,NY,13760,42.10393946,-76.0525246,POINT (-76.0525246 42.10393946)
Pending,Adult-Use Microbusiness,OCMMICR-2023-000530,,"Hidden City Farms, LLC",1064 Saw Mill River Rd,Yonkers,NY,10710,40.97135192,-73.8677879,POINT (-73.8677879 40.97135192)
Pending,Adult-Use Retail,OCMRETL-2023-001042,,"Lucid Vista, LLC",1656 Western Ave,Albany,NY,12203,42.6864029,-73.85432282,POINT (-73.85432282 42.6864029)
Active,CAURD Retail,OCMCAURDP-2023-000097,OCM-CAURD-24-000075,Weeds R Us Inc,1115 First Avenue,New York,NY,10065,40.76099343,-73.96105387,POINT (-73.96105387 40.76099343)
Pending,Adult-Use Retail,OCMRETL-2023-000302,,Premium Management Group LLC,964 Broadway St,Buffalo,NY,14212,42.89313008,-78.83894828,POINT (-78.83894828 42.89313008)
Pending,Adult-Use Retail,OCMRETL-2023-001082,,Brooklyn High Retail 2 LLC,1833 E New York Ave,Brooklyn,NY,11207,40.67623079,-73.90182647,POINT (-73.90182647 40.67623079)
Pending,Adult-Use Retail,OCMRETL-2023-000163,,Gk mart llc,293 Amherst St,Buffalo,NY,14207,42.93717924,-78.89262091,POINT (-78.89262091 42.93717924)
Active,CAURD Retail,OCMCAURDP-2023-000245,OCM-CAURD-24-000193,Northern Lights Dispensary LLC,172-06 125th Ave,Jamaica,NY,11434,40.68147134,-73.77209855,POINT (-73.77209855 40.68147134)
Active,Adult-Use Retail,OCMRETL-2023-001533,OCM-RETL-24-000073,Dark Horse 2 Corp,15 Centre St,Albany,NY,12207,42.65596812,-73.74527346,POINT (-73.74527346 42.65596812)
Active,CAURD Retail,OCMCAURDP-2023-000019,OCM-CAURD-24-000152,Air City Cannabis LLC,1707 Oriskany St,Utica,NY,13502,43.11073077,-75.2561088,POINT (-75.2561088 43.11073077)
Pending,Adult-Use Retail,OCMRETL-2023-001972,,"Metro Heights, LLC",1630 Eggert Rd,Amherst,NY,14226,42.97234887,-78.80668459,POINT (-78.80668459 42.97234887)
Active,CAURD Retail,OCMCAURDP-2023-000022,OCM-CAURD-23-000016,Strain Stars LLC,1815 Broadhollow Rd,Farmingdale,NY,11735,40.74369657,-73.42261694,POINT (-73.42261694 40.74369657)
Pending,CAURD Retail,OCMCAURDP-2024-000042,,Nucleus Dispensary Inc.,1819 2nd Ave,New York,NY,10128,40.78311975,-73.94799808,POINT (-73.94799808 40.78311975)
Active,Adult-Use Retail,OCMRETL-2023-000926,OCM-RETL-24-000115,"Parra's Enterprises, LLC",31 Webster St,North Tonawanda,NY,14120,43.02295552,-78.8775587,POINT (-78.8775587 43.02295552)
Active,CAURD Retail,OCMCAURDP-2023-000171,OCM-CAURD-24-000072,Central Apothecary LLC,974 State Route 67,Ballston Spa,NY,12020,42.98496105,-73.85188062,POINT (-73.85188062 42.98496105)
Active,Adult-Use Retail,OCMRETL-C-2024-000941,OCM-RETL-24-000186,Dizzpensary LLC,287 Smith St,Brooklyn,NY,11231,40.68211112,-73.9935083,POINT (-73.9935083 40.68211112)
Pending,Adult-Use Microbusiness,OCMMICR-2023-000463,,Utopia Flowers LLC,2204 Utopia Pkwy,Whitestone,NY,11357,40.77692677,-73.79340554,POINT (-73.79340554 40.77692677)
Pending,Adult-Use Retail,OCMRETL-2023-001513,,Special Friends Group LLC,1697 Nostrand Ave,Brooklyn,NY,11226,40.64453952,-73.94882606,POINT (-73.94882606 40.64453952)
Pending,Adult-Use Retail,OCMRETL-2023-001432,,Gtb2 Enterprise Llc,4646 Genesee St,Cheektowaga,NY,14225,42.93445399,-78.71730118,POINT (-78.71730118 42.93445399)
Active,Adult-Use Retail,OCMRETL-2023-002092,OCM-RETL-24-000016,Blue Forest Farms Dispensary LLC,122 E 25th Street,New York,NY,10010,40.74012877,-73.98240533,POINT (-73.98240533 40.74012877)
Pending,Adult-Use Retail,OCMRETL-2023-001803,,PVS GROUP USA INC.,405 HUNTS POINT AVENUE,Bronx,NY,10474,40.80942146,-73.88054887,POINT (-73.88054887 40.80942146)
Pending,Adult-Use Retail,OCMRETL-2023-001928,,GET YO CHRONIC G.Y.C. LLC,930 Walden Ave,Buffalo,NY,14211,42.90654435,-78.80178818,POINT (-78.80178818 42.90654435)
Active,Adult-Use Retail,OCMRETL-2023-001502,OCM-RETL-24-000074,ATNC INC,105 Dryden Rd,Ithaca,NY,14850,42.44181262,-76.48684206,POINT (-76.48684206 42.44181262)
Pending,Adult-Use Retail,OCMRETL-2023-000219,,BME Holdings of NY LLC,607 W 3rd St,Jamestown,NY,14701,42.0941521,-79.25422024,POINT (-79.25422024 42.0941521)
Active,Adult-Use Retail,OCMRETL-C-2024-000023,OCM-RETL-24-000008,My Bud 420 Inc.,1798 E Tremont Ave,Bronx,NY,10460,40.84023284,-73.86744167,POINT (-73.86744167 40.84023284)
Pending,Adult-Use Retail,OCMRETL-2023-002074,,Womens United Alliance LLC,1370 Ralph Ave,Brooklyn,NY,11236,40.64320279,-73.91985815,POINT (-73.91985815 40.64320279)
Pending,Adult-Use Retail,OCMRETL-2023-001691,,Grass Express inc,203 Medford Ave,Patchogue,NY,11772,40.77391003,-73.00759034,POINT (-73.00759034 40.77391003)
Pending,Adult-Use Microbusiness,OCMMICR-2023-000356,,Windmill Botanicals LLC,3 Sam Stratton Rd,Amsterdam,NY,12010,42.92934095,-74.1663784,POINT (-74.1663784 42.92934095)
Pending,CAURD Retail,OCMCAURDP-2024-000098,,Big Bro Consulting LLC,45 Grove Ave,Albany,NY,12208,42.6532504,-73.78716493,POINT (-73.78716493 42.6532504)
Active,RO Medical,,MM0306D,"Columbia Care NY, LLC.",44 Court Street,Brooklyn,NY,11201,40.69262043,-73.99101851,POINT (-73.99101851 40.69262043)
Pending,Adult-Use Retail,OCMRETL-2023-000809,,Green Leaf Holdings group llc,2955 Bailey Ave,Buffalo,NY,14215,42.93524229,-78.8135666,POINT (-78.8135666 42.93524229)
Pending,Adult-Use Retail,OCMRETL-2023-001318,,10613 Northern LLC,10613 Northern Blvd,Corona,NY,11368,40.75782464,-73.86264184,POINT (-73.86264184 40.75782464)
Active,RO Medical & Adult-Use,,MM1003D,"Curaleaf NY, LLC",345 Cornelia St,Plattsburgh,NY,12901,44.69719722,-73.48021731,POINT (-73.48021731 44.69719722)
Pending,Adult-Use Retail,OCMRETL-2023-001771,,Smitty Buds Inc.,693 E Lincoln Ave,Mount Vernon,NY,10552,40.91653151,-73.8129572,POINT (-73.8129572 40.91653151)
Active,CAURD Retail,OCMCAURDP-2023-000142,OCM-CAURD-24-000197,Hydroman Dispensary,260 Warren St,Hudson,NY,12534,42.25364337,-73.7919826,POINT (-73.7919826 42.25364337)
Active,Adult-Use Retail,OCMRETL-2023-002127,OCM-RETL-24-000092,JJSK INC.,165 S Plank Rd,Newburgh,NY,12550,41.522582,-74.06349063,POINT (-74.06349063 41.522582)
Pending,CAURD Retail,OCMCAURDP-2023-000092,,"Dynasty Commodities, Inc.",2119 Frederick Douglass Blvd,New York,NY,10026,40.80345439,-73.95615634,POINT (-73.95615634 40.80345439)
Active,CAURD Retail,OCMCAURDP-2023-000044,OCM-CAURD-23-000033,Amsterdam Cannabis Inc.,1451 State Highway 5S,Amsterdam,NY,12010,42.92911739,-74.20166103,POINT (-74.20166103 42.92911739)
Active,CAURD Retail,OCMCAURDP-2023-000114,OCM-CAURD-24-000112,Cat Rock CAURD LLC,244 Main St,White Plains,NY,10601,41.0333001,-73.76460904,POINT (-73.76460904 41.0333001)
Pending,Adult-Use Retail,OCMRETL-2023-001641,,Dreem Box LLC,386 Canal St,New York,NY,10013,40.72134995,-74.00474269,POINT (-74.00474269 40.72134995)
Active,Adult-Use Retail,OCMRETL-2023-002006,OCM-RETL-24-000093,Divine Kinnektion LLC,765 Washington Ave,Brooklyn,NY,11238,40.67390544,-73.96293507,POINT (-73.96293507 40.67390544)
Active,Adult-Use Retail,OCMRETL-2023-002204,OCM-RETL-24-000071,"CL Canna Holdings, LLC",3808 State Route 13,Pulaski,NY,13142,43.55907874,-76.12040656,POINT (-76.12040656 43.55907874)
Pending,Adult-Use Retail,OCMRETL-2023-001557,,GSS Consulting LLC,25405 Hillside Ave,Glen Oaks,NY,11004,40.73625594,-73.71362921,POINT (-73.71362921 40.73625594)
Active,Adult-Use Retail,OCMRETL-2023-002035,OCM-RETL-24-000138,1650 Crane Street Dispensary LLC,1650 Crane St Ste 1,Schenectady,NY,12303,42.78950697,-73.94395544,POINT (-73.94395544 42.78950697)
Pending,Adult-Use Retail,OCMRETL-2023-000192,,The Upscale Smoker LLC,911 Central Ave,Albany,NY,12206,42.6816552,-73.79174174,POINT (-73.79174174 42.6816552)
Active,Adult-Use Retail,OCMRETL-2023-000875,OCM-RETL-24-000145,Command Cannabis Dispensary Inc.,3871 S Park Ave,Blasdell,NY,14219,42.79226918,-78.82393482,POINT (-78.82393482 42.79226918)
Active,CAURD Retail,OCMCAURDP-2023-000121,OCM-CAURD-24-000163,AFI & Associates Group LLC,2371 Central Park Ave,Yonkers,NY,10710,40.97573571,-73.83290046,POINT (-73.83290046 40.97573571)
Pending,Adult-Use Retail,OCMRETL-C-2024-000016,,Free Thinkers LLC,2 Coenties Slip,New York,NY,10004,40.70369044,-74.0105371,POINT (-74.0105371 40.70369044)
Active,CAURD Retail,OCMCAURDP-2023-000054,OCM-CAURD-24-000118,Big Gas Dispensary,98 N. Chestnut St.,New Paltz,NY,12561,41.75496589,-74.08363507,POINT (-74.08363507 41.75496589)
Pending,Adult-Use Retail,OCMRETL-2023-001178,,"Iodice Provisions, LLC",1326 Erie Blvd W,Rome,NY,13440,43.22592881,-75.48750442,POINT (-75.48750442 43.22592881)
Pending,CAURD Retail,OCMCAURDP-2023-000178,,Union Chill Cannabis NY LLC,34 W Pulteney Street,Corning,NY,14830,42.15115795,-77.06307101,POINT (-77.06307101 42.15115795)
Active,Adult-Use Retail,OCMRETL-2023-001600,OCM-RETL-24-000157,Green Veteran NY LLC,35 Route 9W,Haverstraw,NY,10927,41.19200844,-73.9654005,POINT (-73.9654005 41.19200844)
Active,Adult-Use Retail,OCMRETL-2023-001329,OCM-RETL-24-000163,Nicless LLC,638 Columbia St Ext,Latham,NY,12110,42.76245484,-73.7513684,POINT (-73.7513684 42.76245484)
Active,Adult-Use Microbusiness,OCMMICR-2023-000419,OCM-MICR-24-000103,Custom Osmotics LLC,621 Lake Ave,Rochester,NY,14613,43.17603835,-77.63033784,POINT (-77.63033784 43.17603835)
Pending,Adult-Use Retail,OCMRETL-2023-000123,,John L Polenski JR,158 Weaver Rd,Saint Johnsville,NY,13452,43.03706065,-74.53356292,POINT (-74.53356292 43.03706065)
Pending,Adult-Use Retail,OCMRETL-2023-000583,,My Choice Smoke Shop Inc.,2628 Seneca St,West Seneca,NY,14224,42.84508222,-78.79554613,POINT (-78.79554613 42.84508222)
Pending,Adult-Use Retail,OCMRETL-2023-000083,,KAY&ZY Holdings LLC,547 State Route 32,Highland Mills,NY,10930,41.34902423,-74.12519355,POINT (-74.12519355 41.34902423)
Pending,Adult-Use Microbusiness,OCMMICR-2023-000249,,ROC Dispensary and Hydroponics LLC,324 Jefferson Rd.,Rochester,NY,14623,43.09155359,-77.64878431,POINT (-77.64878431 43.09155359)
Pending,Adult-Use Retail,OCMRETL-2023-002090,,Tink & E Co. Inc.,1201 Ostrander Ave,Riverhead,NY,11901,40.93441194,-72.66938426,POINT (-72.66938426 40.93441194)
Active,Adult-Use Retail,OCMRETL-2023-001931,OCM-RETL-24-000038,"Asking Edward, LLC",48 E Genesee St,Auburn,NY,13021,42.93315829,-76.5602618,POINT (-76.5602618 42.93315829)
Active,CAURD Retail,OCMCAURDP-2023-000028,OCM-CAURD-23-000028,Capital District Cannabis & Wellness Inc.,997 Central Ave,Albany,NY,12205,42.68424072,-73.79468382,POINT (-73.79468382 42.68424072)
Active,CAURD Retail,OCMCAURDP-2023-000062,OCM-CAURD-24-000077,Polanco Brothers Corp,12 E 42nd St,New York,NY,10017,40.75326418,-73.9805407,POINT (-73.9805407 40.75326418)
Pending,Adult-Use Retail,OCMRETL-2023-000877,,RT 13 Cannabis Novelties LLC,2586 Elmira Rd,Newfield,NY,14867,42.32680355,-76.65082952,POINT (-76.65082952 42.32680355)
Pending,Adult-Use Microbusiness,OCMMICR-2023-000011,,Frees' Ice Cream Novelties LLC,12 Commons drive Suite 11,Cooperstown,NY,13326,42.64928938,-74.95946589,POINT (-74.95946589 42.64928938)
Active,Adult-Use Retail,OCMRETL-2023-001360,OCM-RETL-24-000098,"CEBEDE, LLC",24 Washington St,Ellicottville,NY,14731,42.27533887,-78.67227776,POINT (-78.67227776 42.27533887)
Active,CAURD Retail,OCMCAURDP-2024-000041,OCM-CAURD-24-000196,"Fireleaf, LLC",2102 Ralph Ave,Brooklyn,NY,11234,40.62635148,-73.91805528,POINT (-73.91805528 40.62635148)
Active,CAURD Retail,OCMCAURDP-2024-000039,OCM-CAURD-24-000160,"JS Curry & Associates, LLC",1363 Delaware Ave,Buffalo,NY,14209,42.92158141,-78.8674416,POINT (-78.8674416 42.92158141)
Active,Adult-Use Retail,OCMRETL-2023-000471,OCM-RETL-24-000026,Bayside supply inc,224-15 Union Turnpike  11364,Oakland Gardens,NY,11364,40.73588765,-73.74629281,POINT (-73.74629281 40.73588765)
Active,Adult-Use Retail,OCMRETL-2023-001130,OCM-RETL-24-000011,OET INC.,733 Flatbush Ave,Brooklyn,NY,11226,40.65507423,-73.95966747,POINT (-73.95966747 40.65507423)
Active,CAURD Retail,OCMCAURDP-2023-000131,OCM-CAURD-24-000165,Rodge Archer,3633 Kingsbridge Ave,Bronx,NY,10463,40.88412535,-73.90233941,POINT (-73.90233941 40.88412535)
Pending,Adult-Use Retail,OCMRETL-2023-002176,,Eshe Holdings LLC,576 North Ave,New Rochelle,NY,10801,40.92149184,-73.7880185,POINT (-73.7880185 40.92149184)
Active,Adult-Use Microbusiness,OCMMICR-C-2024-000003,OCM-MICR-24-000010,The Herbal Confectionery LLC,1 Water St.,New Paltz,NY,12561,41.74658523,-74.09008652,POINT (-74.09008652 41.74658523)
Active,RO Medical,,MM0804D,"Valley Agriceuticals, LLC",345 Route 304,Bardonia,NY,10956,41.11003762,-73.99595274,POINT (-73.99595274 41.11003762)
Active,CAURD Retail,OCMCAURDP-2023-000122,OCM-CAURD-24-000068,"The BonTemps Firm Retail, LLC",232 Allen St,Buffalo,NY,14201,42.89940623,-78.87863627,POINT (-78.87863627 42.89940623)
Pending,RO Medical & Adult-Use,,,"PharmaCann of New York, LLC.",3760 Union Road,Cheektowaga,NY,14225,42.91442399,-78.75431956,POINT (-78.75431956 42.91442399)
Active,Adult-Use Retail,OCMRETL-2023-000003,OCM-RETL-24-000120,Seaweed RBNY,7313 Beach Channel Dr,Arverne,NY,11692,40.59057748,-73.80346129,POINT (-73.80346129 40.59057748)
Active,Adult-Use Retail,OCMRETL-2023-001955,OCM-RETL-24-000142,R&R Cannabis LLC,12 Hudson Ave,Glens Falls,NY,12801,43.30564819,-73.6510886,POINT (-73.6510886 43.30564819)
Pending,CAURD Retail,OCMCAURDP-2023-000089,,URBAN CLOUDS LLC,25-15 Broadway,Astoria,NY,11106,40.76334172,-73.92813299,POINT (-73.92813299 40.76334172)
Active,Adult-Use Retail,OCMRETL-C-2024-000006,OCM-RETL-24-000004,Down To Earth Canna Inc,248-15 Union Tpke,Jamaica,NY,11426,40.74246256,-73.721893,POINT (-73.721893 40.74246256)
Pending,Adult-Use Retail,OCMRETL-2023-000134,,Creekside Botanicals LLC,24 Church St Ste 420,Canajoharie,NY,13317,42.90564348,-74.57199786,POINT (-74.57199786 42.90564348)
Pending,Adult-Use Retail,OCMRETL-2023-001881,,Southern Tier Cannabis Inc.,1905 College Ave,Elmira,NY,14901,42.11744702,-76.82262047,POINT (-76.82262047 42.11744702)
Pending,CAURD Retail,OCMCAURDP-2023-000079,,Excite Unlimited LLC,"975 Allerton Ave, Unit B",Bronx,NY,10469,40.86556454,-73.85953693,POINT (-73.85953693 40.86556454)
Pending,CAURD Retail,OCMCAURDP-2024-000100,,420 Wonderland LLC,13872 Queens Blvd,Briarwood,NY,11435,40.70695089,-73.8173485,POINT (-73.8173485 40.70695089)
Pending,Adult-Use Retail,OCMRETL-2023-001330,,720 winton road LLC,722 N Winton Rd,Rochester,NY,14609,43.15925541,-77.54769772,POINT (-77.54769772 43.15925541)
Active,Adult-Use Microbusiness,OCMMICR-2023-000585,OCM-MICR-24-000017,LotusWorks Wellness Inc.,261 Main St,Beacon,NY,12508,41.50648847,-73.97264978,POINT (-73.97264978 41.50648847)
Active,CAURD Retail,OCMCAURDP-2023-000059,OCM-CAURD-24-000046,Buddega NYC LLC,475 Central Avenue,White Plains,NY,10606,41.02999159,-73.78865275,POINT (-73.78865275 41.02999159)
Active,Adult-Use Retail,OCMRETL-2023-001197,OCM-RETL-24-000185,Satura Development Group LLC,1561 Westchester Ave,Bronx,NY,10472,40.82881658,-73.87725273,POINT (-73.87725273 40.82881658)
Active,Adult-Use Retail,OCMRETL-2023-001805,OCM-RETL-24-000061,KushKlub NY LLC,186 Orchard St,New York,NY,10002,40.72162061,-73.98835644,POINT (-73.98835644 40.72162061)
Pending,Adult-Use Retail,OCMRETL-2023-001345,,Garden Bliss LLC,1031 Southern Blvd,Bronx,NY,10459,40.82387075,-73.89193468,POINT (-73.89193468 40.82387075)
Active,CAURD Retail,OCMCAURDP-2023-000063,OCM-CAURD-24-000137,DNP-Z LLC,2375 Arthur Ave,Bronx,NY,10458,40.85507369,-73.88806576,POINT (-73.88806576 40.85507369)
Active,Adult-Use Retail,OCMRETL-2023-000407,OCM-RETL-24-000052,Alyssa M Renko,6041 S Transit Rd,South Lockport,NY,14094,43.1293903,-78.69680487,POINT (-78.69680487 43.1293903)
Active,CAURD Retail,OCMCAURDP-2023-000223,OCM-CAURD-24-000146,"Green Health, L.L.C.",1190 Lexington Ave,New York,NY,10028,40.77635153,-73.95796495,POINT (-73.95796495 40.77635153)
Active,CAURD Retail,OCMCAURDP-2023-000225,OCM-CAURD-24-000114,Cannadreams Inc.,862 9th Ave,New York,NY,10019,40.76712085,-73.98620866,POINT (-73.98620866 40.76712085)
Active,CAURD Retail,OCMCAURDP-2023-000050,OCM-CAURD-23-000023,Gotham Buds LLC,248 West 125th Street,Harlem,NY,10027,40.80951202,-73.94975673,POINT (-73.94975673 40.80951202)
Active,CAURD Retail,OCMCAURDP-2023-000057,OCM-CAURD-24-000183,NugHub NY LLC,1350 Forest Ave,Staten Island,NY,10302,40.62579694,-74.13453373,POINT (-74.13453373 40.62579694)
Active,CAURD Retail,OCMCAURDP-2024-000017,OCM-CAURD-24-000166,"MedaBlue, LLC",214 3rd Ave,New York,NY,10003,40.73615239,-73.98518544,POINT (-73.98518544 40.73615239)
Pending,Adult-Use Retail,OCMRETL-2023-000262,,Green Leaf Wellness Co. LLC,971 Albany Shaker Rd,Latham,NY,12110,42.76352798,-73.81498693,POINT (-73.81498693 42.76352798)
Active,CAURD Retail,OCMCAURDP-2023-000215,OCM-CAURD-24-000110,Daniel S Dennis I,2988 US-20,Seneca Falls,NY,13148,42.94957653,-76.76648004,POINT (-76.76648004 42.94957653)
Pending,CAURD Retail,OCMCAURDP-2023-000152,,RMAN Holdings LLC,8412 3rd Ave,Brooklyn,NY,11209,40.62490293,-74.03054938,POINT (-74.03054938 40.62490293)
Pending,CAURD Retail,OCMCAURDP-2024-000062,,"4 Jays, LLC",2500 South Rd,Poughkeepsie,NY,12601,41.65990699,-73.93022661,POINT (-73.93022661 41.65990699)
Active,Adult-Use Microbusiness,OCMMICR-2023-000299,OCM-MICR-24-000161,Bossiee Budz LLC,1337 Corbin Hill Rd,Sloansville,NY,12160,42.76973,-74.426743,POINT (-74.426743 42.76973)
Pending,Adult-Use Retail,OCMRETL-2023-001755,,Buds R Us LLC,249 W 34th St,New York,NY,10001,40.75144081,-73.99153042,POINT (-73.99153042 40.75144081)
Pending,Adult-Use Retail,OCMRETL-2023-000872,,Saginaw Distributors LLC,1425 Jefferson Rd Ste 4,Rochester,NY,14623,43.08696614,-77.59127793,POINT (-77.59127793 43.08696614)
Active,CAURD Retail,OCMCAURDP-2023-000090,OCM-CAURD-24-000121,"Organic Relief Leaf, LLC",977 2nd Avenue,New York,NY,10022,40.75599558,-73.96779174,POINT (-73.96779174 40.75599558)
Active,CAURD Retail,OCMCAURDP-2023-000064,OCM-CAURD-23-000043,716 Cannabis,2053 Electric Avenue,Blasdell,NY,14219,42.80285619,-78.82899819,POINT (-78.82899819 42.80285619)
Pending,Adult-Use Retail,,,AU Pending Location,50 Old Fulton St,Brooklyn,NY,11201,40.70212733,-73.99285525,POINT (-73.99285525 40.70212733)
Active,CAURD Retail,OCMCAURDP-2023-000075,OCM-CAURD-24-000122,The Next Chapter NY LLC,28 Route 59,Nyack,NY,10960,41.0911021,-73.91871714,POINT (-73.91871714 41.0911021)
Active,Adult-Use Retail,OCMRETL-2023-001475,OCM-RETL-24-000057,"Harmony Horizon, LLC",1972 Central Avenue,Albany,NY,12205,42.74089129,-73.85952627,POINT (-73.85952627 42.74089129)
Active,RO Medical,,MM0904D,"Citiva Medical, LLC",1147 Route 9,Wappingers Falls,NY,12590,41.56644398,-73.90728622,POINT (-73.90728622 41.56644398)
Active,CAURD Retail,OCMCAURDP-2023-000025,OCM-CAURD-24-000096,Smiley Exotics,201 E 30th St,New York,NY,10016,40.74323059,-73.97985545,POINT (-73.97985545 40.74323059)
Pending,Adult-Use Retail,OCMRETL-2023-001652,,L Train Agency LLC,2183 Montauk Hwy,Bridgehampton,NY,11932,40.93394621,-72.31057609,POINT (-72.31057609 40.93394621)
Active,CAURD Retail,OCMCAURDP-2024-000075,OCM-CAURD-24-000189,High Peaks Canna Inc.,137 Maple Ave,Saratoga Springs,NY,12866,43.08758799,-73.78031761,POINT (-73.78031761 43.08758799)
Active,CAURD Retail,OCMCAURDP-2023-000237,OCM-CAURD-24-000164,Cori Rodriguez,2075 Central Ave,Schenectady,NY,12304,42.75162859,-73.87154932,POINT (-73.87154932 42.75162859)
Pending,Adult-Use Retail,OCMRETL-2023-002067,,Cannary LLC,204 E Main St,Batavia,NY,14020,42.99725297,-78.18146354,POINT (-78.18146354 42.99725297)
Active,RO Medical & Adult-Use,,MM0705D,"Fiorello Pharmaceuticals, Inc.",1675 US-9,Clifton Park,NY,12065,42.85980846,-73.76484286,POINT (-73.76484286 42.85980846)
Pending,CAURD Retail,OCMCAURDP-2023-000001,,Albert D Capraro,488 A East Main Street,Patchogue,NY,11772,40.76595255,-73.00709092,POINT (-73.00709092 40.76595255)
Pending,Adult-Use Microbusiness,OCMMICR-2023-000147,,Matthew Burke,2 Ann St,Amsterdam,NY,12010,42.9500387,-74.2128425,POINT (-74.2128425 42.9500387)
Pending,Adult-Use Retail,OCMRETL-2023-001374,,Sukoon Ventures LLC,810 Pennsylvania Ave,Brooklyn,NY,11207,40.65807965,-73.89033592,POINT (-73.89033592 40.65807965)
Pending,Adult-Use Retail,OCMRETL-2023-000194,,"SMOKELADA WHOLESALE, INC.",1081 Union Rd,West Seneca,NY,14224,42.82991185,-78.75348422,POINT (-78.75348422 42.82991185)
Pending,Adult-Use Retail,OCMRETL-2023-001742,,Green Strain Relaxation Corp,107-29 Liberty Ave,Ozone Park,NY,11417,40.68377072,-73.833758,POINT (-73.833758 40.68377072)
Active,Adult-Use Microbusiness,OCMMICR-2023-000198,OCM-MICR-24-000067,Back To The Land Herbs llc,309 Miner Street Rd,Canton,NY,13617,44.57595219,-75.1681348,POINT (-75.1681348 44.57595219)
Pending,Adult-Use Retail,OCMRETL-2023-000306,,Enterprise HQ Corp.,12 Amsterdam Ave,Medford,NY,11763,40.81661898,-72.96695442,POINT (-72.96695442 40.81661898)
Pending,Adult-Use Retail,OCMRETL-2023-001296,,NATURAL LEAF INC.,928 Straight Path,West Babylon,NY,11704,40.72418901,-73.37642923,POINT (-73.37642923 40.72418901)
Pending,CAURD Retail,OCMCAURDP-2024-000029,,Level Up Nyc Corp.,405 W 39th St,New York,NY,10018,40.75661994,-73.99408349,POINT (-73.99408349 40.75661994)
Pending,Adult-Use Retail,OCMRETL-2023-000769,,JD Naturals LLC,8063 State Route 12 Ste 3,Barneveld,NY,13304,43.25342363,-75.18488103,POINT (-75.18488103 43.25342363)
Active,Adult-Use Retail,OCMRETL-2023-001356,OCM-RETL-24-000158,Serenity Greens LLC,2245 South Rd,Poughkeepsie,NY,12601,41.64375762,-73.92183193,POINT (-73.92183193 41.64375762)
Active,Adult-Use Microbusiness,OCMMICR-2023-000351,OCM-MICR-24-000004,Terrace Corporation of New York,54 Nelson Ave Ext,Saratoga Springs,NY,12866,43.05079513,-73.77455361,POINT (-73.77455361 43.05079513)
Active,CAURD Retail,OCMCAURDP-2023-000049,OCM-CAURD-23-000035,Happy Days Dispensary Inc.,105 Route 109,Farmingdale,NY,11735,40.73104755,-73.45537933,POINT (-73.45537933 40.73104755)
Active,Adult-Use Retail,OCMRETL-2023-001398,OCM-RETL-24-000050,Hoosick Dispensary LLC,260 Hoosick Street,Troy,NY,12180,42.73834132,-73.67100253,POINT (-73.67100253 42.73834132)
Active,Adult-Use Retail,OCMRETL-2023-001337,OCM-RETL-24-000112,Plant Meets Public LLC,17 Tinker St,Woodstock,NY,12498,42.04066813,-74.11899558,POINT (-74.11899558 42.04066813)
Pending,Adult-Use Retail,OCMRETL-2023-001185,,NNC 2 LLC,496 Broadway,Newburgh,NY,12550,41.50139128,-74.03025478,POINT (-74.03025478 41.50139128)
Active,Adult-Use Retail,OCMRETL-2023-001473,OCM-RETL-24-000046,KiKi Buddz Corp.,50-22 72nd St.,Woodside,NY,11377,40.73679843,-73.8923467,POINT (-73.8923467 40.73679843)
Active,CAURD Retail,OCMCAURDP-2024-000026,OCM-CAURD-24-000175,NYS CANNABIS PARTNERS INC.,2552 Linden Blvd,Brooklyn,NY,11208,40.66768872,-73.870033,POINT (-73.870033 40.66768872)
Active,Adult-Use Retail,OCMRETL-C-2024-000004,OCM-RETL-24-000002,H&O City Heart Inc.,1517 Helderberg Ave,Rotterdam,NY,12306,42.78716059,-73.95958376,POINT (-73.95958376 42.78716059)
Pending,Adult-Use Retail,OCMRETL-2023-000430,,SMACKED 2 CONVENIENCE CORP,11630 SPRINGFIELD BLVD,Cambria Hts,NY,11411,40.69684233,-73.74345619,POINT (-73.74345619 40.69684233)
Pending,Adult-Use Retail,OCMRETL-2023-001714,,Emerald Eclipse LLC,1939 Grand Island Blvd,Grand Island,NY,14072,43.01438803,-78.95577627,POINT (-78.95577627 43.01438803)
Active,Adult-Use Microbusiness,OCMMICR-2023-000131,OCM-MICR-24-000050,VJ Farms LLC,544 Main St,Beacon,NY,12508,41.50258476,-73.96303611,POINT (-73.96303611 41.50258476)
Active,Adult-Use Retail,OCMRETL-2023-000298,OCM-RETL-24-000143,Zootiez LLC,5440 Route 9W,Newburgh,NY,12550,41.5702398,-73.99249414,POINT (-73.99249414 41.5702398)
Pending,Adult-Use Retail,OCMRETL-2023-001353,,Deep XY Holding LLC,25202 Rockaway Blvd,Rosedale,NY,11422,40.6366996,-73.74061198,POINT (-73.74061198 40.6366996)
Pending,Adult-Use Retail,OCMRETL-2023-002009,,"Chesterfield Cannabis Co., LLC",89 Kent St,Keesville,NY,12944,44.50508115,-73.47783569,POINT (-73.47783569 44.50508115)
Pending,Adult-Use Retail,OCMRETL-2023-001163,,Jackpot 420 LLC,3262 Francis Lewis Blvd.,Flushing,NY,11358,40.76781848,-73.79104444,POINT (-73.79104444 40.76781848)
Active,RO Medical,,MM0103D,"PharmaCann of New York, LLC.",642 Old Liverpool Rd.,Liverpool,NY,13088,43.09243393,-76.19326742,POINT (-76.19326742 43.09243393)
Pending,Adult-Use Retail,OCMRETL-2023-001409,,"LEAFFIELD, LLC",3046 Niagara Falls Blvd,Wheatfield,NY,14120,43.08302422,-78.87738947,POINT (-78.87738947 43.08302422)
Pending,CAURD Retail,OCMCAURDP-2023-000183,,NY Flos LLC,45 Aqueduct Rd,White Plains,NY,10606,41.03617769,-73.78240231,POINT (-73.78240231 41.03617769)
Pending,Adult-Use Microbusiness,OCMMICR-2023-000416,,Sticky Bandits llc,98 Wilson Rd,Catskill,NY,12414,42.24662749,-73.95828121,POINT (-73.95828121 42.24662749)
Active,CAURD Retail,OCMCAURDP-2023-000124,OCM-CAURD-24-000078,EGRH LLC,531 Warren St,Hudson,NY,12534,42.24905835,-73.78600863,POINT (-73.78600863 42.24905835)
Pending,Adult-Use Retail,OCMRETL-2023-001700,,Modern Growth LLC,420 Grant St,Buffalo,NY,14213,42.92544209,-78.88976979,POINT (-78.88976979 42.92544209)
Pending,Adult-Use Microbusiness,OCMMICR-2023-000390,,"Upstate New York Cannabis and Clone Company, LLC",75 King Rd,Buskirk,NY,12028,42.96344435,-73.43784119,POINT (-73.43784119 42.96344435)
Active,Adult-Use Retail,OCMRETL-2023-001546,OCM-RETL-24-000086,"Bud Dispensary Company, LLC",143 George St,Oswego,NY,13126,43.46271866,-76.48530708,POINT (-76.48530708 43.46271866)
Pending,Adult-Use Retail,OCMRETL-2023-000539,,Main St Convenience Store 1 Corp,388 Main St,Poughkeepsie,NY,12601,41.70213164,-73.92381763,POINT (-73.92381763 41.70213164)
Pending,Adult-Use Microbusiness,OCMMICR-2023-000257,,"Opulent Oasis, LLC",135 Walling Rd,Warwick,NY,10990,41.26457648,-74.44563283,POINT (-74.44563283 41.26457648)
Active,CAURD Retail,OCMCAURDP-2023-000118,OCM-CAURD-24-000087,Weedish LLC,128 E 86th St,New York,NY,10028,40.77968304,-73.95618351,POINT (-73.95618351 40.77968304)
Active,Adult-Use Retail,OCMRETL-2023-001638,OCM-RETL-24-000044,Goldleaf Cannabis LLC,235 Fairview Ave,Hudson,NY,12534,42.26116041,-73.76485054,POINT (-73.76485054 42.26116041)
Pending,CAURD Retail,OCMCAURDP-2024-000025,,212Partners,1119 Broadway,Brooklyn,NY,11221,40.69383871,-73.92954066,POINT (-73.92954066 40.69383871)
Pending,Adult-Use Retail,OCMRETL-2023-002138,,CANNABIS HORIZON HOLDINGS,938 Intervale Ave,Bronx,NY,10459,40.82052457,-73.8968733,POINT (-73.8968733 40.82052457)
Active,Adult-Use Retail,OCMRETL-2023-001809,OCM-RETL-24-000183,Yonkers Grown LLC,678 Central Park Ave,Yonkers,NY,10704,40.92407295,-73.85863792,POINT (-73.85863792 40.92407295)
Pending,Adult-Use Retail,OCMRETL-2023-000478,,"G.C. Roasting, Inc.",609 Main St,Catskill,NY,12414,42.29639,-73.86068,POINT (-73.86068 42.29639)
Active,Adult-Use Retail,OCMRETL-2023-001848,OCM-RETL-24-000068,AAR CANN LLC,110-04 Jamaica Ave.,Queens,NY,11418,40.69638437,-73.83776574,POINT (-73.83776574 40.69638437)
Active,Adult-Use Retail,OCMRETL-2023-000045,OCM-RETL-24-000119,Farmers Choice Dispensary 2 LLC,1 Old Route 299,New Paltz,NY,12561,41.74133871,-74.05738428,POINT (-74.05738428 41.74133871)
Active,Adult-Use Microbusiness,OCMMICR-2023-000600,OCM-MICR-24-000091,Bunker's Hemp LLC,7810 Cypress Ave,Glendale,NY,11385,40.69504861,-73.89858814,POINT (-73.89858814 40.69504861)
Pending,Adult-Use Retail,OCMRETL-2023-000334,,LIT NYC INC,456 Avenue P,Brooklyn,NY,11223,40.60902765,-73.97059777,POINT (-73.97059777 40.60902765)
Active,CAURD Retail,OCMCAURDP-2023-000169,OCM-CAURD-24-000170,Brian Stark Enterprises LLC,1086 Old Country Rd,Riverhead,NY,11901,40.9299792,-72.68140476,POINT (-72.68140476 40.9299792)
Active,CAURD Retail,OCMCAURDP-2023-000011,OCM-CAURD-23-000011,Stage One Cannabis LLC,810C Broadway,Rensselaer,NY,12144,42.64636213,-73.7396257,POINT (-73.7396257 42.64636213)
Active,Adult-Use Retail,OCMRETL-2023-000722,OCM-RETL-24-000153,Luxus Botanica,8234 Turin Rd Ste 1,Rome,NY,13440,43.26002304,-75.46219116,POINT (-75.46219116 43.26002304)
Active,Adult-Use Microbusiness,OCMMICR-2023-000215,OCM-MICR-24-000109,"Raven's View Genetics, LLC",3664 County Road 18,Delhi,NY,13753,42.30847361,-74.83962335,POINT (-74.83962335 42.30847361)
Pending,Adult-Use Retail,OCMRETL-2023-000975,,Green Essentials Naturally of NY LLC,3734 State Highway 30,Amsterdam,NY,12010,43.0440983,-74.21379411,POINT (-74.21379411 43.0440983)
Pending,RO Medical,,,Hudson Health Extracts,427 Broadway,New York,NY,10013,40.71991661,-74.00152754,POINT (-74.00152754 40.71991661)
Pending,Adult-Use Retail,OCMRETL-2023-001729,,Windward Management LLC,208 Broadway,Brooklyn,NY,11211,40.70953983,-73.96137231,POINT (-73.96137231 40.70953983)
Active,CAURD Retail,OCMCAURDP-2023-000014,OCM-CAURD-24-000080,Social Equity CAURD JV LLC,74-03 Metropolitan Avenue,Queens,NY,11379,40.71290992,-73.87808322,POINT (-73.87808322 40.71290992)
Pending,Adult-Use Retail,OCMRETL-2023-001507,,Best Dispensary Near Me Front St LLC,350 Front St,Staten Island,NY,10304,40.62855976,-74.07455557,POINT (-74.07455557 40.62855976)
Pending,CAURD Retail,OCMCAURDP-2023-000221,,"Empire State Gallery Holdings, LLC",2200 Walden Ave,Cheektowaga,NY,14225,42.90715742,-78.7541735,POINT (-78.7541735 42.90715742)
Pending,Adult-Use Retail,OCMRETL-2023-001147,,Heavenly Garden NY INC,279 East Main St,Port Jervis,NY,12771,41.35847461,-74.68344188,POINT (-74.68344188 41.35847461)
Pending,Adult-Use Retail,OCMRETL-2023-001794,,Cream 4004 LLC,4004 74th Street,Flushing,NY,11373,40.74648396,-73.89143564,POINT (-73.89143564 40.74648396)
Active,CAURD Retail,OCMCAURDP-2023-000077,OCM-CAURD-24-000082,T & C Distribution LLC,182 Fifth Ave,New York,NY,10010,40.74117574,-73.9899368,POINT (-73.9899368 40.74117574)
Active,Adult-Use Retail,OCMRETL-2023-001555,OCM-RETL-24-000015,Highland Gallery LLC,501 Route 9W,Piermont,NY,10968,41.032178,-73.926533,POINT (-73.926533 41.032178)
Pending,Adult-Use Microbusiness,OCMMICR-2023-000130,,Blazin Red Horse LLC,1380 State Route 104,Ontario,NY,14519,43.22750226,-77.31385077,POINT (-77.31385077 43.22750226)
Pending,Adult-Use Microbusiness,OCMMICR-2023-000098,,Christopher D Casacci,8806 Tonawanda Creek Rd,Clarence Center,NY,14032,43.08499775,-78.66360456,POINT (-78.66360456 43.08499775)
Active,RO Medical & Adult-Use,,MM0403D,"Etain, LLC.",445 State Route 28,Kingston,NY,12401,41.96291249,-74.06154594,POINT (-74.06154594 41.96291249)
Pending,Adult-Use Retail,OCMRETL-2023-001776,,Tree Market NY LLC,2470 Hamburg Tpke,Lackawanna,NY,14218,42.81777578,-78.84688272,POINT (-78.84688272 42.81777578)
Active,CAURD Retail,OCMCAURDP-2023-000023,OCM-CAURD-24-000185,Anthony Crapanzano,1938 Clove Rd,Staten Island,NY,10304,40.60609108,-74.08685418,POINT (-74.08685418 40.60609108)
Pending,Adult-Use Retail,OCMRETL-2023-001695,,Kingston Cannabis LLC,728 Broadway,Kingston,NY,12401,41.9316032,-74.00984838,POINT (-74.00984838 41.9316032)
Pending,Adult-Use Retail,OCMRETL-2023-000465,,Pineapple Xpress LLC,467 State St,Rochester,NY,14608,43.16292523,-77.62139201,POINT (-77.62139201 43.16292523)
Pending,Adult-Use Retail,OCMRETL-2023-001020,,Cannageo Inc.,5507 Nesconset Hwy Ste 12A,Mount Sinai,NY,11766,40.92876998,-73.04072364,POINT (-73.04072364 40.92876998)
Pending,Adult-Use Retail,OCMRETL-2023-001959,,Juan Jesus Taveras,3535 White Plains Rd,Bronx,NY,10467,40.87870103,-73.8655677,POINT (-73.8655677 40.87870103)
Active,Adult-Use Microbusiness,OCMMICR-2023-000004,OCM-MICR-24-000048,"New Dawn Ventures, LLC",222 Chicago St,Buffalo,NY,14204,42.87359177,-78.86769767,POINT (-78.86769767 42.87359177)
Pending,Adult-Use Microbusiness,OCMMICR-2023-000468,,The Farm at Old Saratoga Mercantile LLC,1120 Route 29,Schuylerville,NY,12871,43.10843405,-73.60284803,POINT (-73.60284803 43.10843405)
Active,CAURD Retail,OCMCAURDP-2023-000013,OCM-CAURD-23-000022,"North Country Roots, Inc.",622 Lake Flower Avenue,Saranac Lake,NY,12983,44.31111607,-74.1155008,POINT (-74.1155008 44.31111607)
Pending,Adult-Use Retail,OCMRETL-2023-000788,,Hesham M Kassim,544 Flatbush Ave,Brooklyn,NY,11225,40.66048268,-73.96070031,POINT (-73.96070031 40.66048268)
Active,Adult-Use Retail,OCMRETL-2023-000320,OCM-RETL-24-000161,Mileva LLC,3873 Main St,Warrensburg,NY,12885,43.49661879,-73.77598104,POINT (-73.77598104 43.49661879)
Pending,CAURD Retail,OCMCAURDP-2023-000153,,JII Williamsburg,63 North 6th St,Brooklyn,NY,11249,40.71921688,-73.96130179,POINT (-73.96130179 40.71921688)
Active,Adult-Use Retail,OCMRETL-2023-000409,OCM-RETL-24-000176,Michael Schweikowsky,1936 S Park Ave,Buffalo,NY,14220,42.84623158,-78.82364187,POINT (-78.82364187 42.84623158)
Active,Adult-Use Retail,OCMRETL-2023-000699,OCM-RETL-24-000076,"Highlife Health, LLC",19 Huguenot St,New Rochelle,NY,10801,40.9141054,-73.7740358,POINT (-73.7740358 40.9141054)
Pending,Adult-Use Retail,OCMRETL-2023-002139,,Linden Blvd NM LLC,205-16 Linden Blvd,Saint Albans,NY,11412,40.69578564,-73.74716876,POINT (-73.74716876 40.69578564)
Active,Adult-Use Retail,OCMRETL-2023-001001,OCM-RETL-24-000103,Nitecap LLC,1151 Hylan Ave,Staten Island,NY,10305,40.59867792,-74.08110442,POINT (-74.08110442 40.59867792)
Active,RO Medical,,MM0205D,"Vireo Health of NY, LLC.",89-55 Queens Boulevard,Elmhurst,NY,11373,40.73452092,-73.87296364,POINT (-73.87296364 40.73452092)
Pending,Adult-Use Retail,OCMRETL-2023-000358,,KB Holdings 716 LLC,1699 Military Rd,Tonawanda,NY,14217,42.98371128,-78.88480782,POINT (-78.88480782 42.98371128)
Pending,CAURD Retail,,,CAURD Pending Location,1960 Empire Blvd,Penfield,NY,14580,43.19377048,-77.50180137,POINT (-77.50180137 43.19377048)
Active,RO Medical & Adult-Use,,MM0603D,"NYCANNA, LLC",2365 Broadhollow Rd.,Farmingdale,NY,11737,40.75471698,-73.42195253,POINT (-73.42195253 40.75471698)
Pending,Adult-Use Retail,OCMRETL-2023-000567,,Back Porch Cannabis Corp.,14 Kehr St,Buffalo,NY,14211,42.90550895,-78.83244772,POINT (-78.83244772 42.90550895)
Pending,Adult-Use Retail,OCMRETL-2023-000863,,Mark L Cold,656 South Ave,Rochester,NY,14620,43.14268996,-77.60447632,POINT (-77.60447632 43.14268996)
Active,Adult-Use Retail,OCMRETL-2023-002021,OCM-RETL-24-000147,Sith Lord TD Inc.,381 5th Ave,New York,NY,10016,40.74942265,-73.98375494,POINT (-73.98375494 40.74942265)
Pending,Adult-Use Retail,OCMRETL-2023-001986,,"Genesis Cannabis, LLC",300 Broadway,Albany,NY,12207,42.64719491,-73.75022713,POINT (-73.75022713 42.64719491)
Pending,Adult-Use Microbusiness,OCMMICR-C-2024-000029,,"Misty Bleu Farm, LLC",400 River St,Troy,NY,12180,42.73584312,-73.687268,POINT (-73.687268 42.73584312)
Active,CAURD Retail,OCMCAURDP-2023-000078,OCM-CAURD-24-000085,"WNYC II, LLC",665 North French Road,Amherst,NY,14228,43.03463765,-78.80032687,POINT (-78.80032687 43.03463765)
Active,CAURD Retail,OCMCAURDP-2023-000074,OCM-CAURD-23-000038,"WhiteboxTHC, LLC",334 East 73rd St,New York,NY,10021,40.769079,-73.95706608,POINT (-73.95706608 40.769079)
Active,Adult-Use Retail,OCMRETL-2023-002154,OCM-RETL-24-000154,NY Retail 2 Inc.,372 E Fordham Rd,Bronx,NY,10458,40.86177102,-73.8923698,POINT (-73.8923698 40.86177102)
Pending,Adult-Use Retail,OCMRETL-2023-002155,,J & A VAPE SHOP 8 INC,6901 14th Ave,Brooklyn,NY,11228,40.62229325,-74.00168099,POINT (-74.00168099 40.62229325)
Pending,Adult-Use Retail,OCMRETL-2023-000762,,Peers 757 Inc,1 Northern Dr,Troy,NY,12182,42.78581773,-73.66815452,POINT (-73.66815452 42.78581773)
Pending,Adult-Use Retail,OCMRETL-2023-001220,,Monty's Group Enterprise LLC,"909 State Route 9, Suite #3",Queensbury,NY,12804,43.33678159,-73.67935882,POINT (-73.67935882 43.33678159)
Active,CAURD Retail,OCMCAURDP-2023-000017,OCM-CAURD-24-000144,Half Island Flavors Llc,4219 Webster Ave,Bronx,NY,10470,40.89629776,-73.86306368,POINT (-73.86306368 40.89629776)
Pending,Adult-Use Retail,OCMRETL-2023-002106,,"Westmere Market, LLC",2028 Western Ave,Albany,NY,12203,42.69724149,-73.88686326,POINT (-73.88686326 42.69724149)
Pending,Adult-Use Retail,OCMRETL-2023-001514,,C&R Project LLC,366 Quaker Rd,Queensbury,NY,12804,43.33203786,-73.64793925,POINT (-73.64793925 43.33203786)
Active,CAURD Retail,OCMCAURDP-2023-000165,OCM-CAURD-24-000155,The Higher Company LLC,123 E Willow St,Syracuse,NY,13202,43.05242828,-76.15188371,POINT (-76.15188371 43.05242828)
Pending,Adult-Use Retail,OCMRETL-2023-000780,,"On The Move Contracting Services, LLC",1635 N Main St,Savannah,NY,13146,43.06959895,-76.76035783,POINT (-76.76035783 43.06959895)
Active,CAURD Retail,OCMCAURDP-2023-000208,OCM-CAURD-24-000187,3 - 5 Holdings LLC,423 Franklin St,Ithaca,NY,14850,42.44891701,-76.50499529,POINT (-76.50499529 42.44891701)
Pending,Adult-Use Retail,OCMRETL-2023-000015,,"Bloom Brothers NY, INC.",442 Broadway,Menands,NY,12204,42.69950222,-73.71844192,POINT (-73.71844192 42.69950222)
Pending,Adult-Use Microbusiness,OCMMICR-2023-000312,,Yager Farms Inc,1039 Niagara St,Buffalo,NY,14213,42.91192602,-78.89976014,POINT (-78.89976014 42.91192602)
Pending,Adult-Use Retail,OCMRETL-2023-000383,,Lafayette Wines LLC,100 3rd St,Newburgh,NY,12550,41.504138,-74.01152408,POINT (-74.01152408 41.504138)
Pending,Adult-Use Retail,OCMRETL-2023-001929,,807 MAN TH LLC,807 Manhattan Ave,Brooklyn,NY,11222,40.72805743,-73.95331252,POINT (-73.95331252 40.72805743)
Pending,CAURD Retail,OCMCAURDP-2023-000143,,R&R Remedies LLC,21 Gardner Ave,Brooklyn,NY,11237,40.70852536,-73.92412454,POINT (-73.92412454 40.70852536)
Active,CAURD Retail,OCMCAURDP-2023-000012,OCM-CAURD-23-000008,Florisun LLC,33 Union Sq. W,New York,NY,10003,40.73662198,-73.99077448,POINT (-73.99077448 40.73662198)
Active,CAURD Retail,OCMCAURDP-2023-000048,OCM-CAURD-23-000032,Humble County LLC,740 Hoosick Rd,Troy,NY,12180,42.74537742,-73.64211478,POINT (-73.64211478 42.74537742)
Active,Adult-Use Retail,OCMRETL-2023-000609,OCM-RETL-24-000149,"Luisa Bella Holdings, LLC",35 Page Ave,Staten Island,NY,10309,40.52379657,-74.23470992,POINT (-74.23470992 40.52379657)
Pending,CAURD Retail,OCMCAURDP-2024-000099,,Bodega Dreams LLC,3711 Brewerton Rd,Syracuse,NY,13212,43.11660599,-76.14499511,POINT (-76.14499511 43.11660599)
Active,CAURD Retail,OCMCAURDP-2023-000175,OCM-CAURD-24-000093,AMSM LLC,2442 Clinton St,Buffalo,NY,14224,42.87148538,-78.78568749,POINT (-78.78568749 42.87148538)
Pending,Adult-Use Retail,OCMRETL-2023-000199,,Blissful Buds LLC,222 Elmira Rd,Ithaca,NY,14850,42.43013259,-76.50452777,POINT (-76.50452777 42.43013259)
Active,CAURD Retail,OCMCAURDP-2023-000180,OCM-CAURD-24-000113,"Evergreen Retail 1, LLC",51 N Main St,Brockport,NY,14420,43.21902386,-77.9373612,POINT (-77.9373612 43.21902386)
Active,Adult-Use Retail,OCMRETL-2023-000718,OCM-RETL-24-000085,Cloud 9,305 Saw Mill River Rd,Yonkers,NY,10701,40.94717538,-73.8768756,POINT (-73.8768756 40.94717538)
Pending,Adult-Use Microbusiness,OCMMICR-2023-000088,,Beginning of Longevity Achievement Culture and Knowledge LLC,4146 Bronxwood Ave,Bronx,NY,10466,40.89008835,-73.85236102,POINT (-73.85236102 40.89008835)
Active,RO Medical,,MM0305D,"Columbia Care NY, LLC.",200 West Ridge Rd.,Rochester,NY,14615,43.19760611,-77.63327382,POINT (-77.63327382 43.19760611)
Active,CAURD Retail,OCMCAURDP-2024-000014,OCM-CAURD-24-000161,"Robinson's Cannabis Flowers, LLC",106 Everett Rd,Albany,NY,12205,42.69407315,-73.77331157,POINT (-73.77331157 42.69407315)
Active,CAURD Retail,OCMCAURDP-2023-000228,OCM-CAURD-24-000177,1106 Rebecca St Limited Liability Company,304 Ellery Street,Brooklyn,NY,11206,40.69933691,-73.9402965,POINT (-73.9402965 40.69933691)
Pending,Adult-Use Retail,OCMRETL-2023-001192,,Truly Green LLC,80-12 Surrey Pl.,Jamaica,NY,11432,40.72629023,-73.78907803,POINT (-73.78907803 40.72629023)
Active,RO Medical & Adult-Use,,MM1004D,"Curaleaf NY, LLC",107-18 70th Rd.,Forest Hills,NY,11375,40.72137512,-73.84530157,POINT (-73.84530157 40.72137512)
Pending,Adult-Use Retail,OCMRETL-2023-002224,,"Melyne, Inc",3461 E Tremont Ave,Bronx,NY,10465,40.832134,-73.82739995,POINT (-73.82739995 40.832134)
Active,RO Medical,,MM0702D,"Fiorello Pharmaceuticals, Inc.",2E 30th Street,New York,NY,10016,40.74583879,-73.98636384,POINT (-73.98636384 40.74583879)
Active,Adult-Use Retail,OCMRETL-2023-000808,OCM-RETL-24-000003,Rosedale Cannabis Dispensary LLC,90-67 Sutphin Blvd,Jamaica,NY,11435,40.7011402,-73.80779512,POINT (-73.80779512 40.7011402)
Active,Adult-Use Retail,OCMRETL-2023-002134,OCM-RETL-24-000144,Case Management Inc.,3169 Coney Island Ave,Brooklyn,NY,11235,40.57890317,-73.95963084,POINT (-73.95963084 40.57890317)
Pending,Adult-Use Retail,OCMRETL-2023-000660,,Idamis M Bueno,19 Green Ave,Brooklyn,NY,11238,40.6859873,-73.97249275,POINT (-73.97249275 40.6859873)
Pending,Adult-Use Retail,OCMRETL-2023-000151,,Dutchess Roots LLC,2615 South Rd,Poughkeepsie,NY,12601,41.66797607,-73.92969685,POINT (-73.92969685 41.66797607)
Active,CAURD Retail,OCMCAURDP-2023-000209,OCM-CAURD-24-000126,The Weed Shoppe INC.,4906 Arthur Kill Road,Staten Island,NY,10309,40.52346615,-74.23927198,POINT (-74.23927198 40.52346615)
Pending,CAURD Retail,OCMCAURDP-2023-000031,,Just a Little Higher LLC,24-15 Queens Plaza North,Long Island City,NY,11101,40.75104302,-73.94029256,POINT (-73.94029256 40.75104302)
Pending,Adult-Use Retail,OCMRETL-2023-000438,,MoxBeacon LLC,324 W Main St,Montour Falls,NY,14865,42.34613571,-76.84830134,POINT (-76.84830134 42.34613571)
Active,CAURD Retail,OCMCAURDP-2023-000026,OCM-CAURD-23-000027,Premier Earth corp.,1297 Hertel Ave,Buffalo,NY,14216,42.94767505,-78.85932095,POINT (-78.85932095 42.94767505)
Active,Adult-Use Microbusiness,OCMMICR-2023-000503,OCM-MICR-24-000015,"Glass House Farms, LLC",132 Cherry St,Ithaca,NY,14850,42.43723397,-76.51580065,POINT (-76.51580065 42.43723397)
Pending,Adult-Use Retail,OCMRETL-2023-000566,,Knox property group llc,220 W Water St,Elmira,NY,14901,42.0875984,-76.80755434,POINT (-76.80755434 42.0875984)
Active,Adult-Use Microbusiness,OCMMICR-2023-000006,OCM-MICR-24-000025,Newburgh Kush Factory,201 Ann St,Newburgh,NY,12550,41.49951635,-74.0159248,POINT (-74.0159248 41.49951635)
Pending,Adult-Use Retail,OCMRETL-2023-000856,,Joint Adventures LLC,1644 Deer Park Ave,Deer Park,NY,11729,40.75246054,-73.32587555,POINT (-73.32587555 40.75246054)
Active,Adult-Use Retail,OCMRETL-2023-001287,OCM-RETL-24-000113,Urban Herb LLC,1850 Union Rd Ste 4,West Seneca,NY,14224,42.85039104,-78.75459137,POINT (-78.75459137 42.85039104)
Active,CAURD Retail,OCMCAURDP-2023-000084,OCM-CAURD-24-000073,Puro vita enterprises inc.,288 Flushing Avenue,Brooklyn,NY,11205,40.69773315,-73.9643727,POINT (-73.9643727 40.69773315)
Active,Adult-Use Retail,OCMRETL-2023-001727,OCM-RETL-24-000040,"Roc Sole Sanctuary, LLC",1430 Dewey Ave,Rochester,NY,14615,43.19308629,-77.6387924,POINT (-77.6387924 43.19308629)
Pending,Adult-Use Retail,OCMRETL-2023-001452,,Liberty Bloom Inc.,1630 Richmond Rd,Staten Island,NY,10304,40.59027038,-74.10080964,POINT (-74.10080964 40.59027038)
Active,CAURD Retail,OCMCAURDP-2023-000198,OCM-CAURD-24-000103,"MyElectrician518.com, LLC",1164 State Rt. 29,Schuylerville,NY,12871,43.10826438,-73.60239588,POINT (-73.60239588 43.10826438)
Pending,Adult-Use Retail,OCMRETL-2023-000421,,"OLD GLORY BUDZ CO. , LLC",1037 Route 17,Southfields,NY,10975,41.24514629,-74.17536927,POINT (-74.17536927 41.24514629)
Active,CAURD Retail,OCMCAURDP-2023-000144,OCM-CAURD-24-000057,TEDG LLC,85 Suydam St,Brooklyn,NY,11221,40.69779335,-73.92938515,POINT (-73.92938515 40.69779335)
Pending,Adult-Use Retail,OCMRETL-2023-002188,,TJMJR LLC,440 S Riverside Ave Ste 9,Croton On Hudson,NY,10520,41.19380508,-73.87911405,POINT (-73.87911405 41.19380508)
Active,Adult-Use Retail,OCMRETL-2023-001383,OCM-RETL-24-000031,"The Green Hut, LLC",12187 State Route 9W,West Coxsackie,NY,12192,42.3753477,-73.83112817,POINT (-73.83112817 42.3753477)
Pending,CAURD Retail,OCMCAURDP-2024-000084,,Domenick Dicostanzo LLC,956 Jewett Ave,Staten Island,NY,10314,40.6127315,-74.1308057,POINT (-74.1308057 40.6127315)
Pending,Adult-Use Microbusiness,OCMMICR-2023-000085,,Grass Roots Wellness NY LLC,350 W Commercial St,East Rochester,NY,14445,43.11490743,-77.49246767,POINT (-77.49246767 43.11490743)
Pending,Adult-Use Retail,OCMRETL-2023-002189,,Veterans for Cannabis LLC,101 Hamilton Ave,Brooklyn,NY,11231,40.68232048,-74.00520788,POINT (-74.00520788 40.68232048)
Pending,CAURD Retail,OCMCAURDP-2024-000080,,Piffords Inc,500 Highland Ave,Peekskill,NY,10566,41.29616074,-73.92004572,POINT (-73.92004572 41.29616074)
Active,Adult-Use Retail,OCMRETL-2023-000524,OCM-RETL-24-000118,"Mammoth Business, LLC",212 Ohio St,Buffalo,NY,14204,42.87107194,-78.87028877,POINT (-78.87028877 42.87107194)
Active,CAURD Retail,OCMCAURDP-2023-000146,OCM-CAURD-24-000052,Green Jungle Inc.,30-30 Steinway Street,Astoria,NY,11103,40.76311295,-73.9157133,POINT (-73.9157133 40.76311295)
Active,Adult-Use Retail,OCMRETL-2023-001890,OCM-RETL-24-000039,Island Leaf LLC,4515 Nesconset Hwy,Port Jefferson Station,NY,11776,40.91109559,-73.06234959,POINT (-73.06234959 40.91109559)
Pending,Adult-Use Retail,OCMRETL-2023-001470,,"Green Oasis, LLC",120 Broadway St,Buffalo,NY,14203,42.88664319,-78.86861178,POINT (-78.86861178 42.88664319)
Active,CAURD Retail,OCMCAURDP-2024-000022,OCM-CAURD-24-000128,Scott M General,"1503 Canandaigua Rd, Suite 3B & 3C",Macedon,NY,14502,43.06448986,-77.31994091,POINT (-77.31994091 43.06448986)
Active,Adult-Use Microbusiness,OCMMICR-2023-000206,OCM-MICR-24-000063,"Buffalo Cannabis Company, LLC",501 Amherst St,Buffalo,NY,14207,42.93975126,-78.88548491,POINT (-78.88548491 42.93975126)
Active,CAURD Retail,OCMCAURDP-2023-000098,OCM-CAURD-24-000056,7 Point Dispensary INC.,332 Northern Blvd,Albany,NY,12204,42.67149109,-73.75273874,POINT (-73.75273874 42.67149109)
Active,Adult-Use Retail,OCMRETL-2023-001056,OCM-RETL-24-000133,716 M.J. LLC,"1287 E. Delavan Ave., Store Right",Buffalo,NY,14215,42.92263902,-78.80914321,POINT (-78.80914321 42.92263902)
Active,CAURD Retail,OCMCAURDP-2023-000133,OCM-CAURD-24-000130,Brooklyn Organic Buds LLC,623 Bergen St,Brooklyn,NY,11238,40.6796237,-73.96889946,POINT (-73.96889946 40.6796237)
Active,RO Medical & Adult-Use,,MM1002D,"Curaleaf NY, LLC",8 North Plank Rd.,Newburgh,NY,12550,41.52037368,-74.02274998,POINT (-74.02274998 41.52037368)
Active,Adult-Use Retail,OCMRETL-2023-001074,OCM-RETL-24-000114,960 Bloomingdale Road LLC,960 Bloomingdale Rd Store #2,Staten Island,NY,10309,40.54754532,-74.22032144,POINT (-74.22032144 40.54754532)
Active,CAURD Retail,OCMCAURDP-2023-000068,OCM-CAURD-24-000062,So Vapes & Accessories,166-30 Jamaica Avenue,Jamaica,NY,11432,40.70595154,-73.7934607,POINT (-73.7934607 40.70595154)
Active,Adult-Use Microbusiness,OCMMICR-2023-000375,OCM-MICR-24-000066,Budding Bliss Farm LLC,310 Bulson Rd,Troy,NY,12180,42.76445289,-73.53979029,POINT (-73.53979029 42.76445289)
Pending,RO Medical & Adult-Use,,,"PharmaCann of New York, LLC.",2 Wade Road,Latham,NY,12110,42.75461136,-73.77770253,POINT (-73.77770253 42.75461136)
Pending,Adult-Use Retail,OCMRETL-2023-001673,,DAR Dispensary LLC,130 W Main St,Endicott,NY,13760,42.09508581,-76.0659163,POINT (-76.0659163 42.09508581)
Pending,Adult-Use Microbusiness,OCMMICR-2023-000589,,AJ'S NATIVE WHOLESALE INC,118 87th St,Niagara Falls,NY,14304,43.07745818,-78.96325443,POINT (-78.96325443 43.07745818)
Active,CAURD Retail,OCMCAURDP-2023-000214,OCM-CAURD-24-000186,LAR MEMORABILIA LLC,6354 108th St,Queens,NY,11375,40.73346346,-73.84995269,POINT (-73.84995269 40.73346346)
Pending,Adult-Use Retail,OCMRETL-2023-000030,,CANNA Health and Wellness LLC,6075 E Henrietta Rd,Rush,NY,14543,42.99137011,-77.64478681,POINT (-77.64478681 42.99137011)
Active,Adult-Use Retail,OCMRETL-2023-002049,OCM-RETL-24-000072,Notorious Tree NY LLC,5211 Broadway St Ste 300,Lancaster,NY,14086,42.90066398,-78.67994138,POINT (-78.67994138 42.90066398)
Pending,Adult-Use Retail,OCMRETL-2023-000710,,DM420 Inc.,6519 Main St Unit B,Westport,NY,12993,44.184546,-73.435965,POINT (-73.435965 44.184546)
Pending,Adult-Use Retail,OCMRETL-2023-001413,,3714 34th LLC,3714 34th St,Long Island City,NY,11101,40.7535261,-73.92900925,POINT (-73.92900925 40.7535261)
Pending,Adult-Use Retail,OCMRETL-2023-001039,,"Greener, LLC",96A Main St,Phelps,NY,14532,42.95767742,-77.05746456,POINT (-77.05746456 42.95767742)
Pending,Adult-Use Retail,OCMRETL-2023-001750,,Brow & Body LLC,63 Welcher Ave,Peekskill,NY,10566,41.27094374,-73.93073271,POINT (-73.93073271 41.27094374)
Active,CAURD Retail,OCMCAURDP-2023-000053,OCM-CAURD-24-000101,Flower Power NYC Corp.,22 W 66th St,New York,NY,10023,40.7726262,-73.97939724,POINT (-73.97939724 40.7726262)
Pending,Adult-Use Retail,OCMRETL-2023-000742,,Paradise Cannabis LLC,1557 Fulton St,Brooklyn,NY,11216,40.67987245,-73.93899043,POINT (-73.93899043 40.67987245)
Pending,Adult-Use Microbusiness,OCMMICR-2023-000070,,Lucas K Attebery,510 W 27th St,New York,NY,10001,40.75030394,-74.00271161,POINT (-74.00271161 40.75030394)
Pending,Adult-Use Microbusiness,OCMMICR-2023-000536,,"LFG Distribution, LLC",3705 Harlem Rd,Cheektowaga,NY,14215,42.94450661,-78.7839762,POINT (-78.7839762 42.94450661)
Pending,Adult-Use Retail,OCMRETL-2023-001282,,"SARATOGA VAPOR SHOP, LLC",2124 Doubleday Ave # 2,Ballston Spa,NY,12020,43.01761027,-73.84345132,POINT (-73.84345132 43.01761027)
Pending,CAURD Retail,OCMCAURDP-2023-000234,,"Kushmart NY, LLC",1413 Kings Hwy,Brooklyn,NY,11229,40.60849503,-73.95903834,POINT (-73.95903834 40.60849503)
Active,CAURD Retail,OCMCAURDP-2023-000027,OCM-CAURD-23-000037,The Grass Hole Cannabis,779 State Route 3,Plattsburgh,NY,12901,44.69553512,-73.52448193,POINT (-73.52448193 44.69553512)
Active,CAURD Retail,OCMCAURDP-2023-000241,OCM-CAURD-24-000176,"Vladimir Bautista, LLC",151 Dyckman St #159,New York,NY,10040,40.86331082,-73.92575808,POINT (-73.92575808 40.86331082)
Active,Adult-Use Retail,OCMRETL-2023-001245,OCM-RETL-24-000087,CalKnap Inc.,807 Washington St,Peekskill,NY,10566,41.27673547,-73.92761019,POINT (-73.92761019 41.27673547)
Pending,Adult-Use Retail,OCMRETL-2023-000146,,Green Galore LLC,1930 Route 300,Newburgh,NY,12550,41.5712764,-74.09214959,POINT (-74.09214959 41.5712764)
Pending,Adult-Use Retail,OCMRETL-2023-001965,,Yurplegreene Holdings NY LLC,195 Morgan Ave,Brooklyn,NY,11237,40.71078893,-73.93373336,POINT (-73.93373336 40.71078893)
Active,CAURD Retail,OCMCAURDP-2023-000199,OCM-CAURD-24-000140,Nuna Harvest LLC,696 Locust St,Mount Vernon,NY,10552,40.92615501,-73.83937468,POINT (-73.83937468 40.92615501)
Active,Adult-Use Retail,OCMRETL-2023-002003,OCM-RETL-24-000126,CannaBliss Recreational Marijuana Dispensary LLC,63-65 Main Street,Fredonia,NY,14063,42.44161749,-79.32844778,POINT (-79.32844778 42.44161749)
Pending,Adult-Use Microbusiness,OCMMICR-2023-000490,,"Goldfinch Flora, LLC",2388 County Highway 107,Amsterdam,NY,12010,43.025866,-74.143647,POINT (-74.143647 43.025866)
Active,Adult-Use Microbusiness,OCMMICR-2023-000166,OCM-MICR-24-000060,Pantheon Perspective LLC,2035 West Road,Boonville,NY,13309,43.51626733,-75.36486049,POINT (-75.36486049 43.51626733)
Active,Adult-Use Retail,OCMRETL-2023-001102,OCM-RETL-24-000014,"4081 Companies, LLC",772 Nostrand Ave,Brooklyn,NY,11216,40.67223878,-73.95035283,POINT (-73.95035283 40.67223878)
Pending,Adult-Use Retail,OCMRETL-2023-001035,,873 Shyamal International Inc.,87 N Country Rd Ste 3,Miller Place,NY,11764,40.95819646,-73.00379777,POINT (-73.00379777 40.95819646)
Active,CAURD Retail,OCMCAURDP-2023-000002,OCM-CAURD-23-000002,Smacked LLC,144 Bleecker St,New York,NY,10012,40.72821019,-73.9993849,POINT (-73.9993849 40.72821019)
Pending,Adult-Use Retail,OCMRETL-2023-002084,,"Purebliss Cannabis Solutions, INC",2734 Sedgwick Avenue,Bronx,NY,10468,40.87050595,-73.90262291,POINT (-73.90262291 40.87050595)
Pending,Adult-Use Retail,OCMRETL-2023-001355,,Deep XY Holding LLC,1 Michael Avenue,Farmingdale,NY,11735,40.72690883,-73.42416675,POINT (-73.42416675 40.72690883)
Active,RO Medical & Adult-Use,,MM0104D,"PharmaCann of New York, LLC.",10 Executive Park Drive.,Albany,NY,12203,42.68397823,-73.83740939,POINT (-73.83740939 42.68397823)
Pending,Adult-Use Microbusiness,OCMMICR-2023-000574,,Stoned in Brooklyn Inc.,8334 Woodhaven Blvd,Glendale,NY,11385,40.70228861,-73.85536833,POINT (-73.85536833 40.70228861)
Pending,Adult-Use Retail,OCMRETL-2023-001244,,SELDEN DRIVE-THROUGH CONVENIENCE INC,729 Middle Country Rd,Selden,NY,11784,40.86617858,-73.03820989,POINT (-73.03820989 40.86617858)
Active,Adult-Use Microbusiness,OCMMICR-2023-000478,OCM-MICR-24-000011,LeadFarmer Inc.,1886 County Road 39,Bainbridge,NY,13733,42.2972106,-75.42578287,POINT (-75.42578287 42.2972106)
Active,Adult-Use Microbusiness,OCMMICR-2023-000512,OCM-MICR-24-000093,Oak Queens LLC,187 Plains Rd,New Paltz,NY,12561,41.72623536,-74.10518067,POINT (-74.10518067 41.72623536)
Active,CAURD Retail,OCMCAURDP-2023-000202,OCM-CAURD-24-000139,Leafy Wonders LLC,956 South First Street,Fulton,NY,13069,43.30883251,-76.39939255,POINT (-76.39939255 43.30883251)
Pending,Adult-Use Retail,OCMRETL-2023-001746,,DISPO/BK LLC,584 4th Ave,Brooklyn,NY,11215,40.66585243,-73.99256743,POINT (-73.99256743 40.66585243)
Active,RO Medical,,MM0805D,"Valley Agriceuticals, LLC",4776 Commercial Drive,New Hartford,NY,13413,43.08619468,-75.31519918,POINT (-75.31519918 43.08619468)
Active,CAURD Retail,OCMCAURDP-2023-000173,OCM-CAURD-24-000053,Adirondack Ad Vantage LLC,4171 State Route 11,Malone,NY,12953,44.86773302,-74.24820203,POINT (-74.24820203 44.86773302)
Pending,Adult-Use Retail,OCMRETL-2023-001403,,Big Moe's Automotive Repair LLC,577 Forest Ave,Buffalo,NY,14222,42.92787422,-78.87823925,POINT (-78.87823925 42.92787422)
Active,CAURD Retail,OCMCAURDP-2023-000147,OCM-CAURD-24-000172,David Carl Musumeci,109 E Taft Rd,North Syracuse,NY,13212,43.12281418,-76.1405241,POINT (-76.1405241 43.12281418)
Pending,Adult-Use Retail,OCMRETL-2023-001777,,Carry-On Cannabis NY LLC,8529 Niagara Falls Blvd,Niagara Falls,NY,14304,43.09085326,-78.9659136,POINT (-78.9659136 43.09085326)
Pending,Adult-Use Retail,OCMRETL-C-2024-000713,,Kaur Consulting LLC,1871 Old Country Rd,Riverhead,NY,11901,40.92276586,-72.71263944,POINT (-72.71263944 40.92276586)
Active,Adult-Use Microbusiness,OCMMICR-2023-000605,OCM-MICR-24-000009,Creative Balance Group LLC,1402 Blondell Ave Unit C,Bronx,NY,10461,40.8430351,-73.84283996,POINT (-73.84283996 40.8430351)
Pending,CAURD Retail,OCMCAURDP-2023-000230,,420 NY LLC,2431 Grand Concourse,Bronx,NY,10468,40.86104485,-73.89819619,POINT (-73.89819619 40.86104485)
Active,CAURD Retail,OCMCAURDP-2023-000125,OCM-CAURD-24-000109,Gratitude Buds Dispensary LLC,814 NY-52,Fishkill,NY,12524,41.52582718,-73.9209069,POINT (-73.9209069 41.52582718)
Pending,Adult-Use Retail,OCMRETL-2023-001654,,Mikon LLC,38 Meserole St,Brooklyn,NY,11206,40.70747684,-73.9489513,POINT (-73.9489513 40.70747684)
Active,Adult-Use Retail,OCMRETL-2023-000293,OCM-RETL-24-000049,Amber Jane LLC,1577 State Route 17B,White Lake,NY,12786,41.67480271,-74.8444397,POINT (-74.8444397 41.67480271)
Active,Adult-Use Microbusiness,OCMMICR-C-2024-000001,OCM-MICR-24-000030,Gaea Design and Management LLC,13424 Northern Blvd.,Flushing,NY,11354,40.76251645,-73.83414014,POINT (-73.83414014 40.76251645)
Pending,Adult-Use Retail,OCMRETL-2023-002068,,296 Retail Venture LLC,296 Route 59,Airmont,NY,10901,41.11235763,-74.13514973,POINT (-74.13514973 41.11235763)
Pending,Adult-Use Retail,OCMRETL-2023-000634,,Greenerie LLC,301 Clifton Pl,Brooklyn,NY,11216,40.689201,-73.95125672,POINT (-73.95125672 40.689201)
Pending,Adult-Use Microbusiness,OCMMICR-C-2024-000211,,"Triple P Cannabis Farms, LLC",772 State Route 7,Port Crane,NY,13833,42.16198691,-75.76970389,POINT (-75.76970389 42.16198691)
Active,CAURD Retail,OCMCAURDP-2024-000066,OCM-CAURD-24-000192,Frenchie Herb LLC,81 Wolf Road,Colonie,NY,12205,42.71534069,-73.81156562,POINT (-73.81156562 42.71534069)
Active,CAURD Retail,OCMCAURDP-2023-000035,OCM-CAURD-23-000017,Aaron Van Camp,501 Main St,Buffalo,NY,14203,42.88737968,-78.87375864,POINT (-78.87375864 42.88737968)
Pending,Adult-Use Retail,OCMRETL-2023-000062,,"LakeHouse Cannabis, LLC",156 Clinton Ave,Cortland,NY,13045,42.60764883,-76.16697754,POINT (-76.16697754 42.60764883)
Pending,CAURD Retail,OCMCAURDP-2023-000226,,E & J BTQ CORP,85 Franklin St,New York,NY,10013,40.71795881,-74.00477887,POINT (-74.00477887 40.71795881)
Pending,Adult-Use Retail,OCMRETL-2023-000238,,LYDIG SUPERMARKET INC,711 Lydig Ave,Bronx,NY,10462,40.85454014,-73.86714771,POINT (-73.86714771 40.85454014)
Pending,Adult-Use Microbusiness,OCMMICR-2023-000230,,RHW,6399 Transit Rd,East Amherst,NY,14051,43.02196171,-78.69685865,POINT (-78.69685865 43.02196171)
Pending,Adult-Use Retail,OCMRETL-2023-001228,,"Brightway Services, Inc",18 Apex Rd,Hancock,NY,13783,42.05673737,-75.25446767,POINT (-75.25446767 42.05673737)
Active,Adult-Use Retail,OCMRETL-2023-001764,OCM-RETL-24-000110,"October Basics, LLC",4790 Commercial Dr,New Hartford,NY,13413,43.08620109,-75.31518832,POINT (-75.31518832 43.08620109)
Pending,RO Medical,,,Hudson Health Extracts,552 Main Street,New Rochelle,NY,10801,40.90776763,-73.78318711,POINT (-73.78318711 40.90776763)
Active,CAURD Retail,OCMCAURDP-2024-000038,OCM-CAURD-24-000156,A Little Place to Relax LLC,698 2nd Ave,New York,NY,10016,40.74711678,-73.97408789,POINT (-73.97408789 40.74711678)
Pending,Adult-Use Microbusiness,OCMMICR-C-2024-000144,,HappyHealing420 LLC,69 Wilcox Rd,Fulton,NY,13069,43.2752423,-76.39805966,POINT (-76.39805966 43.2752423)
Active,Adult-Use Microbusiness,OCMMICR-2023-000377,OCM-MICR-24-000035,Especially Green by GSLF LLC,340 Collabeck Rd,Feura Bush,NY,12067,42.57114347,-73.87637702,POINT (-73.87637702 42.57114347)
Pending,Adult-Use Retail,OCMRETL-2023-002081,,CLF BH LLC,60 N 1st St,Brooklyn,NY,11249,40.71647277,-73.96426044,POINT (-73.96426044 40.71647277)
Pending,Adult-Use Retail,OCMRETL-2023-000410,,THE TRIPLE BBB LLC,1185 Yonkers Ave Ste 2A,Yonkers,NY,10704,40.9147582,-73.85213927,POINT (-73.85213927 40.9147582)
Pending,Adult-Use Retail,OCMRETL-2023-001779,,"Rosebudz, Inc.",1146 NY-32,Rosendale,NY,12472,41.98581689,-73.9691646,POINT (-73.9691646 41.98581689)
Pending,CAURD Retail,OCMCAURDP-2024-000054,,Canna Life LLC,1330 Mount Hope Ave,Rochester,NY,14620,43.12420633,-77.6176687,POINT (-77.6176687 43.12420633)
Active,RO Medical & Adult-Use,,MM0604D,"NYCANNA, LLC",192 Seneca Street,Buffalo,NY,14204,42.87944236,-78.86898427,POINT (-78.86898427 42.87944236)
Active,Adult-Use Microbusiness,OCMMICR-2023-000451,OCM-MICR-24-000102,Upstate Haze LLC,1280 Dryden Rd,Ithaca,NY,14850,42.4670468,-76.41181397,POINT (-76.41181397 42.4670468)
Pending,Adult-Use Retail,OCMRETL-2023-001037,,Exercise Express LLC,1473 Norton St # 1479,Rochester,NY,14621,43.18732315,-77.58320899,POINT (-77.58320899 43.18732315)
Active,CAURD Retail,OCMCAURDP-2024-000068,OCM-CAURD-24-000182,Juniper NY LLC,229 Avenue B NY,New York,NY,10009,40.7288737,-73.97834718,POINT (-73.97834718 40.7288737)
Pending,Adult-Use Retail,OCMRETL-2023-001201,,ASkone's LLC,743 Central Park Ave,Yonkers,NY,10704,40.92794146,-73.85787304,POINT (-73.85787304 40.92794146)
Active,Adult-Use Retail,OCMRETL-C-2024-000032,OCM-RETL-24-000117,BUDDEEZ LLC,1460 Lyell Ave Suite 200,Rochester,NY,14606,43.16472372,-77.66404497,POINT (-77.66404497 43.16472372)
Active,CAURD Retail,OCMCAURDP-2023-000065,OCM-CAURD-24-000047,New York City Cannabis Exchange Corp.,248-09 Jericho Turnpike,Bellerose,NY,11426,40.72621389,-73.71807569,POINT (-73.71807569 40.72621389)
Pending,Adult-Use Retail,OCMRETL-2023-001719,,Pramukh 43,4347 Kissena Blvd,Flushing,NY,11355,40.75468264,-73.82365377,POINT (-73.82365377 40.75468264)
Active,CAURD Retail,OCMCAURDP-2023-000109,OCM-CAURD-24-000071,Weed Growers From Seed To Stone llc,533 5th ave,Brooklyn,NY,11215,40.66618546,-73.98870532,POINT (-73.98870532 40.66618546)
Pending,CAURD Retail,OCMCAURDP-2024-000032,,"Lucky Green Ladies NY, LLC",365 S Wall St,Kingston,NY,12401,41.92366369,-74.01230497,POINT (-74.01230497 41.92366369)
Active,Adult-Use Retail,OCMRETL-2023-000285,OCM-RETL-24-000077,"Cannabis Group NY, LLC",14518 14th Ave,Whitestone,NY,11357,40.78684704,-73.82211994,POINT (-73.82211994 40.78684704)
Active,CAURD Retail,OCMCAURDP-2023-000004,OCM-CAURD-23-000003,The Doe Store LLC,835 Broadway,New York,NY,10003,40.73392666,-73.99103408,POINT (-73.99103408 40.73392666)
Active,CAURD Retail,OCMCAURDP-2023-000161,OCM-CAURD-24-000095,BZD Enterprises LLC,1102 Bedford Ave,Brooklyn,NY,11216,40.68702428,-73.95471794,POINT (-73.95471794 40.68702428)
Pending,Adult-Use Retail,OCMRETL-2023-001642,,Sessco Corp.,115 Main St,East Rochester,NY,14445,43.11402672,-77.48459679,POINT (-77.48459679 43.11402672)
Pending,CAURD Retail,OCMCAURDP-2024-000015,,Beyond Beleaf NY INC,4462 Middle Country Rd,Calverton,NY,11933,40.92821728,-72.77911949,POINT (-72.77911949 40.92821728)
Active,CAURD Retail,OCMCAURDP-2023-000106,OCM-CAURD-24-000059,NLDISPO,90 Broadway,Menands,NY,12204,42.68073058,-73.7328298,POINT (-73.7328298 42.68073058)
Active,Adult-Use Retail,OCMRETL-2023-001420,OCM-RETL-24-000170,CBJ Retail LLC,1019 Surf Ave,Brooklyn,NY,11224,40.57551517,-73.97825118,POINT (-73.97825118 40.57551517)
Active,CAURD Retail,OCMCAURDP-2023-000006,OCM-CAURD-23-000005,D-Andrews LLC,1613 Union Street,Schenectady,NY,12309,42.80496041,-73.90495899,POINT (-73.90495899 42.80496041)
Active,Adult-Use Retail,OCMRETL-2023-001399,OCM-RETL-24-000012,RawLeaf Enterprises LLC,364 Broadway,Newburgh,NY,12550,41.50096431,-74.02425611,POINT (-74.02425611 41.50096431)
Pending,CAURD Retail,OCMCAURDP-2024-000051,,ZIL ZAL INC,1260 Castle Hill Avenue,Bronx,NY,10462,40.83353818,-73.85136322,POINT (-73.85136322 40.83353818)
Active,CAURD Retail,OCMCAURDP-2023-000086,OCM-CAURD-24-000173,Green Empire Wellness LLC,465 Forest Avenue,Staten Island,NY,10301,40.63071812,-74.10495924,POINT (-74.10495924 40.63071812)
Active,CAURD Retail,OCMCAURDP-2023-000087,OCM-CAURD-24-000051,Are We Good Enterprises Inc.,154 Vanderbilt Avenue,Brooklyn,NY,11205,40.69300341,-73.96988403,POINT (-73.96988403 40.69300341)
Pending,Adult-Use Microbusiness,OCMMICR-2023-000323,,Patrick S Chesney,17 W Main St,Cuba,NY,14727,42.21715216,-78.27616101,POINT (-78.27616101 42.21715216)
Pending,Adult-Use Retail,OCMRETL-2023-000214,,Flynnstoned Corporation,683 State Fair Blvd.,Syracuse,NY,13209,43.08334117,-76.23266572,POINT (-76.23266572 43.08334117)
Active,Adult-Use Retail,OCMRETL-2023-001071,OCM-RETL-24-000134,Windy Hill Wellness 312 LLC,106 Main St,Greenwich,NY,12834,43.09005243,-73.49920317,POINT (-73.49920317 43.09005243)
Pending,Adult-Use Retail,OCMRETL-2023-000098,,WNY Cannabis Co LLC,4232 Delaware Ave,Tonawanda,NY,14150,42.99975704,-78.87511034,POINT (-78.87511034 42.99975704)
Active,RO Medical & Adult-Use,,MM0903D,"Citiva Medical, LLC",338 New Dorp Lane,Staten Island,NY,10306,40.57124944,-74.11133809,POINT (-74.11133809 40.57124944)
Active,RO Medical & Adult-Use,,MM0704D,"Fiorello Pharmaceuticals, Inc.",556 Jefferson Road,Rochester,NY,14623,43.08713396,-77.63027292,POINT (-77.63027292 43.08713396)
Pending,Adult-Use Microbusiness,OCMMICR-2024-000014,,Grub Bud LLC,1708 Broadway,Schenectady,NY,12306,42.79924695,-73.96121056,POINT (-73.96121056 42.79924695)
Pending,Adult-Use Retail,OCMRETL-2023-001050,,"Annie,Miguel & sons inc.",8611 Jamaica Ave,Woodhaven,NY,11421,40.69263867,-73.85802858,POINT (-73.85802858 40.69263867)
Pending,CAURD Retail,OCMCAURDP-2024-000009,,L.A.R.C. MANAGEMENT LLC,219 9th Ave,"New York,",NY,10011,40.74701552,-74.0010295,POINT (-74.0010295 40.74701552)
Active,Adult-Use Retail,OCMRETL-2023-000372,OCM-RETL-24-000081,1WILDE1 LLC,4179 State Route 20,Castleton,NY,12033,42.54165116,-73.66548622,POINT (-73.66548622 42.54165116)
Active,RO Medical & Adult-Use,,MM0303D,"Columbia Care NY, LLC.",1333 E. Main St.,Riverhead,NY,11901,40.93462894,-72.64977339,POINT (-72.64977339 40.93462894)
Pending,Adult-Use Microbusiness,OCMMICR-2023-000618,,Peace and Love King LLC,197-26 Hillside Ave,Jamaica,NY,11423,40.71853625,-73.76496258,POINT (-73.76496258 40.71853625)
Pending,CAURD Retail,OCMCAURDP-2023-000036,,EK Green LLC,451 Elmwood Ave,Buffalo,NY,14209,42.90927392,-78.87702569,POINT (-78.87702569 42.90927392)
Pending,Adult-Use Retail,OCMRETL-2023-000350,,"Igal Consulting, Inc.",2851 Cropsey Ave,Brooklyn,NY,11214,40.58579009,-73.98774721,POINT (-73.98774721 40.58579009)
Active,CAURD Retail,OCMCAURDP-2023-000151,OCM-CAURD-24-000083,Summit Canna LLC,2412 3rd Avenue,Bronx,NY,10454,40.8085252,-73.9304698,POINT (-73.9304698 40.8085252)
Active,Adult-Use Retail,OCMRETL-2023-001456,OCM-RETL-24-000022,7420 Utrecht LLC,7420 New Utrecht Ave,Brooklyn,NY,11204,40.61643067,-73.99983942,POINT (-73.99983942 40.61643067)
Pending,Adult-Use Retail,OCMRETL-2023-001372,,MNS 0928 CORP,14620 34th Ave,Flushing,NY,11354,40.76720292,-73.82084818,POINT (-73.82084818 40.76720292)
Pending,Adult-Use Retail,OCMRETL-2023-002063,,Green Spectrum Sampling LLC,969 Ellicott St,Buffalo,NY,14209,42.90466226,-78.86577564,POINT (-78.86577564 42.90466226)
Active,CAURD Retail,OCMCAURDP-2023-000107,OCM-CAURD-24-000054,Badumanagement corp,121 South Pearl Street,Albany,NY,12207,42.64605043,-73.75472374,POINT (-73.75472374 42.64605043)
Pending,Adult-Use Retail,OCMRETL-2023-000370,,Mama Smokez inc.,2230 College Point Blvd,Flushing,NY,11356,40.77965917,-73.84612903,POINT (-73.84612903 40.77965917)
Pending,Adult-Use Retail,OCMRETL-2023-001246,,Downtown Flower LLC,116-05 Metropolitan Ave,Richmond Hill,NY,11418,40.7075644,-73.83599144,POINT (-73.83599144 40.7075644)
Active,CAURD Retail,OCMCAURDP-2023-000015,OCM-CAURD-24-000106,"CWS Holdings I, LLC",205 N. Fulton St,Ithaca,NY,14850,42.44013269,-76.5105229,POINT (-76.5105229 42.44013269)
Active,Adult-Use Retail,OCMRETL-2023-001676,OCM-RETL-24-000042,Catskill Cannabis NY LLC,170 W Bridge St,Catskill,NY,12414,42.21546779,-73.8777968,POINT (-73.8777968 42.21546779)
Active,CAURD Retail,OCMCAURDP-2024-000005,OCM-CAURD-24-000117,Loudpack Exotics LLC,6606 Kinne Rd,Syracuse,NY,13214,43.04285256,-76.06390888,POINT (-76.06390888 43.04285256)
Active,Adult-Use Retail,OCMRETL-2023-001410,OCM-RETL-24-000101,Spa City Cannabis LLC,75 Weibel Ave,Saratoga Springs,NY,12866,43.09463924,-73.74442164,POINT (-73.74442164 43.09463924)
Active,CAURD Retail,OCMCAURDP-2023-000128,OCM-CAURD-24-000125,Terrapin Greens,587 Fifth Avenue,New York,NY,10017,40.7570078,-73.97822687,POINT (-73.97822687 40.7570078)
Pending,Adult-Use Retail,OCMRETL-2023-001906,,HF Dispensary LLC,28-31 Borden Avenue,Long Island City,NY,11101,40.73898584,-73.94206445,POINT (-73.94206445 40.73898584)
Pending,Adult-Use Microbusiness,OCMMICR-2023-000350,,"Rustik 471, LLC",469 Dekalb Ave,Brooklyn,NY,11205,40.69063191,-73.95834961,POINT (-73.95834961 40.69063191)
Active,Adult-Use Retail,OCMRETL-2023-001380,OCM-RETL-24-000047,FUMI Dispensary LLC,217-12 Hempstead Ave,Queens Village,NY,11429,40.7147363,-73.74089824,POINT (-73.74089824 40.7147363)
Pending,Adult-Use Microbusiness,OCMMICR-2023-000127,,Hop-n-Hemp Tea Inc.,3576 California Road,Orchard Park,NY,14127,42.78570694,-78.78549791,POINT (-78.78549791 42.78570694)
Pending,CAURD Retail,OCMCAURDP-2024-000008,,Medic Grade llc,175-01 Rockaway Blvd,Queens,NY,11434,40.65789244,-73.77039586,POINT (-73.77039586 40.65789244)
Pending,Adult-Use Retail,OCMRETL-2023-001912,,PLATINUM CONVENIENCE MART CORP.,2144 Broadway,New York,NY,10023,40.78125236,-73.98115749,POINT (-73.98115749 40.78125236)
Active,CAURD Retail,OCMCAURDP-2023-000160,OCM-CAURD-24-000141,Evexia Therapeutics LLC,217 Guideboard Rd,Clifton Park,NY,12065,42.8377281,-73.73906392,POINT (-73.73906392 42.8377281)
Pending,Adult-Use Retail,OCMRETL-2023-000681,,SONIRUS ENTERPRISE LLC,78 SOUTHERN BLVD,Albany,NY,12209,42.63684169,-73.78388063,POINT (-73.78388063 42.63684169)
Pending,CAURD Retail,OCMCAURDP-2023-000145,,Five Borough Farms LLC,150 Atlantic Ave,Brooklyn,NY,11201,40.69027298,-73.9946952,POINT (-73.9946952 40.69027298)
Pending,CAURD Retail,OCMCAURDP-2023-000203,,Kimberly L Baldwin,230 S Main Street,Canandaigua,NY,14424,42.88429348,-77.27901915,POINT (-77.27901915 42.88429348)
Pending,Adult-Use Retail,OCMRETL-2023-001497,,JSE 26 Corp,24502 Horace Harding Expy,Little Neck,NY,11362,40.75789289,-73.73715688,POINT (-73.73715688 40.75789289)
Active,CAURD Retail,OCMCAURDP-2023-000056,OCM-CAURD-23-000041,SAMJNY Holdings LLC,3022 Veteranâs Road West,Staten Island,NY,10309,40.52813336,-74.2388225,POINT (-74.2388225 40.52813336)
Active,CAURD Retail,OCMCAURDP-2023-000200,OCM-CAURD-24-000174,BazzJAT Retail Inc,9538 Queens Blvd,Rego Park,NY,11374,40.73036858,-73.86382747,POINT (-73.86382747 40.73036858)
